plant_code,plant_code_unique,plant_name,generator_id,state,county,ba,nerc_region,azimuth,tilt,system_capacity,module_type,array_type,lat,lon,losses
141,141,Agua Fria,PV-3,AZ,Maricopa,SRP,WECC,180,33.4,200,0,2,33.5561,-112.2153,14
645,645,Big Bend,1,FL,Hillsborough,TEC,SERC,180,27.7944,19800,2,2,27.7944,-82.4036,14
944,944,Geneseo,12,IL,Henry,MISO,MRO,180,30,1200,0,0,41.451494,-90.148547,14
960,960,North Ninth Street,SOL1,IL,Ogle,PJM,RFC,180,25,300,0,0,41.9093,-89.0498,14
1172,1172,Osage (IA),SO,IA,Mitchell,MISO,MRO,35,35,800,0,0,43.279722,-92.810556,14
1355,1355,E W Brown,SOLAR,KY,Mercer,LGEE,SERC,180,16,13000,0,0,37.78831,-84.71257,14
2240,2240,Lon Wright,"SLR1,SLR2",NE,Dodge,SWPP,MRO,180,41.4281,2300,0,2,41.4281,-96.4623,14
2854,2854,Yankee Street,YS1,OH,Montgomery,PJM,RFC,180,25,1100,2,0,39.603,-84.2047,14
2953,2953,Mustang,SLR1,OK,Canadian,SWPP,MRO,180,25,2500,0,0,35.46988,-97.67498,14
6074,6074,Greenwood (MO),5,MO,Jackson,SWPP,MRO,185,15,3000,0,0,38.8615,-94.2982,14
6125,6125,Shrewsbury,S1,MA,Worcester,ISNE,NPCC,0,15,3000,0,0,42.2747,-71.7172,14
10029,10029,General Electric Aircraft Engines,PV,MA,Essex,ISNE,NPCC,180,25,2100,0,0,42.45,-70.9739,14
10224,10224,Merck Rahway Power Plant,SOLAR,NJ,Union,PJM,RFC,229,5,500,0,0,40.615616,-74.26529,14
10437,10437,Sunray 2,SUN2,CA,San Bernardino,CISO,WECC,180,34.863356,20000,0,2,34.863356,-116.827627,14
10438,10438,Sunray 3,SUN3,CA,San Bernardino,CISO,WECC,180,34.863356,13800,0,2,34.863356,-116.827627,14
10439,10439,SEGS III,GEN1,CA,San Bernardino,CISO,WECC,180,35.00694,34200,0,2,35.00694,-117.555768,14
10440,10440,SEGS IV,GEN1,CA,San Bernardino,CISO,WECC,180,35.012166,34200,0,2,35.012166,-117.555672,14
10441,10441,SEGS V,GEN1,CA,San Bernardino,CISO,WECC,180,35.01948,34200,0,2,35.01948,-117.55553,14
10442,10442,SEGS VI,GEN1,CA,San Bernardino,CISO,WECC,180,35.020981,35000,0,2,35.020981,-117.566079,14
10443,10443,SEGS VII,GEN1,CA,San Bernardino,CISO,WECC,180,35.014836,35000,0,2,35.014836,-117.565903,14
10444,10444,SEGS VIII,GEN1,CA,San Bernardino,CISO,WECC,180,35.0308,92000,0,2,35.0308,-117.3563,14
10446,10446,SEGS IX,GEN1,CA,San Bernardino,CISO,WECC,180,35.033,92000,0,2,35.033,-117.338,14
10823,10823,Deer Island Treatment Plant,PV101,MA,Suffolk,ISNE,NPCC,180,15,100,0,0,42.353333,-70.962778,14
50765,50765,Stillwater Facility,1,NV,Churchill,NEVP,WECC,180,16.2,22000,0,0,39.547537,-118.555613,14
54569,54569,Bayville Central Facility,CPV1,NJ,Ocean,PJM,RFC,90,10,200,0,0,39.909424,-74.178041,14
56228,56228,Prescott Airport,PV1,AZ,Yavapai,AZPS,WECC,30,30,3000,0,2,34.6584,-112.4008,14
56322,56322,Wild Horse,WHS1,WA,Kittitas,PSEI,WECC,180,37,500,0,0,47.036269,-120.206494,14
56405,56405,Nevada Solar One,ONE,NV,Clark,NEVP,WECC,180,35.799798,75700,0,2,35.799798,-114.98173,14
56481,56481,SunE Alamosa,"1,2",CO,Alamosa,PSCO,WECC,180,20,8200,0,2,37.690304,-105.880501,14
56500,56500,Western 102 Power Plant,PV1,NV,Storey,NEVP,WECC,180,21,1000,0,0,39.5603,-119.5108,14
56568,56568,Nellis Air Force Base Solar Array,"NS1,NS2,NS3",NV,Clark,NEVP,WECC,0,0,14000.000000000002,0,2,36.260278,-115.0544,14
56768,56768,CalRenew-1,CR1,CA,Fresno,CISO,WECC,198,20,5000,0,0,36.7575,-120.3658,14
56812,56812,Solana Generating Station,"GEN 1,GEN2",AZ,Maricopa,AZPS,WECC,180,32.922294,280000,0,2,32.922294,-112.95594,14
56814,56814,ELACC Photovoltaic Power Facility,"PV1,PV2",CA,Los Angeles,CISO,WECC,180,2,1000,0,0,34.040278,-118.148056,14
56815,56815,Denver Int Airport,1,CO,Denver,PSCO,WECC,90,39.836789,1900,0,2,39.836789,-104.697149,14
56862,56862,Bolthouse S&P and Rowen Farms Solar,"1,2,3,4",CA,Los Angeles,CISO,WECC,180,15,1200,0,2,34.5644,-117.6933,14
56875,56875,Sacramento Soleil LLC,TBD,CA,Sacramento,BANC,WECC,205,45,1000,2,0,38.44979,-121.16469,14
56877,56877,Hall's Warehouse Solar Project,TBD,NJ,Middlesex,PJM,RFC,192,5,1600,2,0,40.573708,-74.394414,14
56883,56883,Pennsauken Solar,"GEN 1,GEN 2,GEN 3,GEN 4,GEN 5,GEN 6,GEN 7,GEN 8,GEN 9,GEN10",NJ,Camden,PJM,RFC,195,25,3900,0,0,39.9894,-75.04,14
56888,56888,Warren County Solar,"GEN 1,GEN 2,GEN 3,GEN 4",NJ,Warren,PJM,RFC,0,20,2000,0,2,40.788957,-75.10697,14
56889,56889,PPL Renewable Energy Merck Solar,GEN 1,NJ,Union,PJM,RFC,0,20,1700,0,2,40.727386,-74.3783,14
56900,56900,Atlantic City Convention Center,"1,2,3,4",NJ,Atlantic,PJM,RFC,200,10,2000,0,0,39.3639,-74.4408,14
56909,56909,Gap Pacific Distribution Center,"1,2,3,4",CA,Fresno,CISO,WECC,90,36.7839,1200,0,2,36.7839,-119.7094,14
56915,56915,SAS Solar Farm,"1,2,3,4",NC,Wake,CPLE,SERC,90,35.8136,2000,0,2,35.8136,-78.7503,14
56917,56917,"Imperial Valley Solar, LLC","1,1A,1B",CA,Imperial,CISO,WECC,180,0,199899.99999999997,2,2,32.671099,-115.587265,14
56922,56922,WWRF Solar Plant,"EAST,WEST",CO,Garfield,PSCO,WECC,90,39.522904,1500,0,2,39.522904,-107.81341,14
56929,56929,DeSoto Next Generation Solar Energy,1,FL,DeSoto,FPL,SERC,90,27.3232,25000,0,2,27.3232,-81.8019,14
56930,56930,Space Coast Next Gen Solar Energy,1,FL,Brevard,FPL,SERC,180,20,10000,0,0,28.4586,-80.6811,14
56938,56938,SunEdison LV Sutton Plant Site,NCP1,NC,New Hanover,CPLE,SERC,90,34.2867,1200,0,2,34.2867,-77.9814,14
56939,56939,Solar Blythe LLC,1,CA,Riverside,CISO,WECC,180,24,21000,2,0,33.5917,-114.7444,14
56944,56944,CM10,PV01,NV,Clark,CISO,WECC,180,25,10000,2,0,35.7881,-114.9933,14
56993,56993,MF Mesa Lane LLC,MESA,PA,Bucks,PJM,RFC,180,30,3000,0,0,40.1483,-74.7772,14
56996,56996,Solar Photovoltaic Project #02,"S1A,S1B",CA,San Bernardino,CISO,WECC,180,0,1000,2,0,33.985244,-117.700826,14
57004,57004,SunEdison Walgreens Moreno Valley,1,CA,Riverside,CISO,WECC,180,15,1000,0,2,33.8672,-117.23,14
57005,57005,Mariani Packing Vacaville Solar,1,CA,Solano,CISO,WECC,100,38.40008,1000,0,2,38.40008,-121.96366,14
57006,57006,Walgreens Woodland Distribution Center,1,CA,Yolo,CISO,WECC,180,15,1000,0,2,38.674894,-121.713362,14
57007,57007,SunEdison Ironwood State Prison,1,CA,Riverside,CISO,WECC,90,33.567268,1000,0,2,33.567268,-114.917979,14
57008,57008,SunEdison Procter & Gamble Oxnard,1,CA,Ventura,CISO,WECC,180,20,1000,2,0,34.2089,-119.13,14
57009,57009,Kohls San Bernardino Solar Facility,1,CA,San Bernardino,CISO,WECC,180,0,1000,0,2,34.094695,-117.266831,14
57010,57010,SunEdison Anheuser Busch Fairfield,1,CA,Solano,CISO,WECC,0,0,1000,0,2,38.232108,-122.092706,14
57011,57011,Chuckawalla Valley State Prison,1,CA,Riverside,CISO,WECC,180,20,1000,0,0,33.565329,-114.903629,14
57012,57012,SunEdison Walmart Apple Valley DC,1,CA,San Bernardino,CISO,WECC,0,0,1000,0,2,34.5975,-117.2,14
57041,57041,Vaca Dixon Solar Station,1,CA,Solano,CISO,WECC,180,30,2000,0,0,38.4106,-121.9264,14
57073,57073,Ivanpah 2,ST1,CA,San Bernardino,CISO,WECC,180,35.556111,133400,0,4,35.556111,-115.468611,14
57074,57074,Ivanpah 1,ST1,CA,San Bernardino,CISO,WECC,180,35.533056,126000,0,4,35.533056,-115.4525,14
57075,57075,Ivanpah 3,ST1,CA,San Bernardino,CISO,WECC,180,35.580833,133400,0,4,35.580833,-115.4825,14
57081,57081,Calpine Vineland Solar LLC,"CVS1,CVS2",NJ,Cumberland,PJM,RFC,181,25,4100,0,0,39.4636,-75.0667,14
57141,57141,RV CSU Power LLC,CSU1,CO,Larimer,PSCO,WECC,180,25,1900,0,2,40.591099,-105.145904,14
57191,57191,Exelon Solar Chicago,ECS1,IL,Cook,PJM,RFC,180,25,9000,0,2,41.6758,-87.6514,14
57197,57197,Blue Wing Solar Energy Generation,1,TX,Bexar,ERCO,TRE,205,20,13900,2,0,29.304177,-98.400339,14
57200,57200,Shelby Solar Energy Generation Facility,1,NC,Cleveland,DUK,SERC,0,0,1000,0,2,35.2536,-81.5956,14
57202,57202,Jacksonville Solar,1,FL,Duval,JEA,SERC,180,20,12600,2,0,30.320748,-81.956377,14
57203,57203,Wyandot Solar Farm,1,OH,Wyandot,PJM,RFC,180,25,10000,2,0,40.8795,-83.317072,14
57204,57204,PSEG Hackettstown,1,NJ,Warren,PJM,RFC,180,25,2200,2,0,40.860629,-74.822935,14
57205,57205,CM48,"PV02,PV03,PV04,PV05,PV06",NV,Clark,CISO,WECC,180,25,48000,2,0,35.7814,-114.9933,14
57216,57216,Crayola Solar Project,"1,2,3",PA,Northampton,PJM,RFC,165,25,2800,0,0,40.760545,-75.238452,14
57217,57217,Solar Photovoltaic Project #03,"S003A,S003B",CA,San Bernardino,CISO,WECC,180,0,1000,2,0,34.094279,-117.400113,14
57219,57219,Solar Photovoltaic Project #05,"S005A,S005B,S005C,S005D,S005E",CA,San Bernardino,CISO,WECC,180,5,2500,0,0,34.086276,-117.230571,14
57220,57220,Solar Photovoltaic Project #06,"S006A,S006B,S006C,S006D",CA,San Bernardino,CISO,WECC,180,10,2000,0,0,34.041389,-117.573055,14
57221,57221,Solar Photovoltaic Project #07,"S007A,S007B,S007C,S007D,S007E",CA,San Bernardino,CISO,WECC,180,5,2500,0,0,34.086111,-117.2275,14
57222,57222,Solar Photovoltaic Project #08,"S008A,S008B,S008C,S008D",CA,San Bernardino,CISO,WECC,180,10,2000,0,0,34.041944,-117.565,14
57223,57223,Solar Photovoltaic Project #09,"S009A,S009B",CA,San Bernardino,CISO,WECC,180,10,1000,0,0,34.042778,-117.571666,14
57224,57224,Solar Photovoltaic Project #10,"S010A,S010B,S010C",CA,San Bernardino,CISO,WECC,180,10,1500,0,0,34.075,-117.516944,14
57225,57225,Solar Photovoltaic Project #11,"S011A,S011B,S011C,S011D,S011E,S011F,S011G",CA,San Bernardino,CISO,WECC,180,5,3500,0,0,34.075833,-117.241388,14
57226,57226,Solar Photovoltaic Project #12,S012A,CA,San Bernardino,CISO,WECC,180,10,500,0,0,34.042222,-117.561666,14
57227,57227,Solar Photovoltaic Project #13,"S013A,S013B,S013C,S013D,S013E,S013F,S013G",CA,San Bernardino,CISO,WECC,180,5,3500,0,0,34.083499,-117.23557,14
57230,57230,Solar Photovoltaic Project #16,"S016A,S016B,S016C",CA,San Bernardino,CISO,WECC,180,5,1500,0,0,34.085556,-117.233611,14
57231,57231,Solar Photovoltaic Project #17,"S017A,S017B,S017C,S017D,S017E,S017F,S017G",CA,San Bernardino,CISO,WECC,180,5,3500,0,0,34.072778,-117.503333,14
57232,57232,Solar Photovoltaic Project #18,"S018A,S018B,S018C",CA,San Bernardino,CISO,WECC,180,10,1500,0,0,34.083333,-117.516388,14
57236,57236,Solar Photovoltaic Project #23,"S023A,S023B,S023C,S023D,S023E",CA,San Bernardino,CISO,WECC,180,10,2500,0,0,34.080833,-117.520277,14
57237,57237,Solar Photovoltaic Project #22,"S022A,S022B,S022C,S022D",CA,San Bernardino,CISO,WECC,180,10,2000,0,0,34.08,-117.2114,14
57243,57243,Cimarron Solar Facility,CIM1,NM,Colfax,WACM,WECC,180,25,30600,2,0,36.468078,-104.635659,14
57245,57245,Solar Photovoltaic Project #26,"S026A,S026B,S026C,S026D,S026E,S026F,S026G,S026H,S026I,S026J,SO26K,SO26L",CA,San Bernardino,CISO,WECC,180,5,6000,0,0,34.131214,-117.425324,14
57246,57246,Solar Photovoltaic Project #27,"S027A,S027B,S027C,S027D",CA,San Bernardino,CISO,WECC,180,10,2000,0,0,34.131111,-117.421666,14
57247,57247,Solar Photovoltaic Project #28,"S028A,S028B,S028C,S028D,S028E,S028F,S028G",CA,San Bernardino,CISO,WECC,180,5,3500,0,0,34.094167,-117.274166,14
57254,57254,Victor Valley CC CPV Solar,1PV,CA,San Bernardino,CISO,WECC,180,34.48017,1000,0,4,34.48017,-117.257938,14
57256,57256,PA Solar Park,1,PA,Carbon,PJM,RFC,180,25,10100,0,0,40.860142,-75.852206,14
57265,57265,Dorchester Solar Site,1,MA,Suffolk,ISNE,NPCC,180,20,1000,0,0,42.300802,-71.047171,14
57269,57269,Haverhill Solar Power Project,1,MA,Essex,ISNE,NPCC,160.5,20,1000,0,0,42.781056,-71.092562,14
57270,57270,NEDC Solar Site,1,MA,Worcester,ISNE,NPCC,180,2.4,1000,0,0,42.105237,-71.702979,14
57275,57275,Crescent Dunes Solar Energy,TSE-1,NV,Nye,NEVP,WECC,180,38.238889,125000,0,4,38.238889,-117.36361,14
57280,57280,Aqua Ingrams Mill,1,PA,Chester,PJM,RFC,190,20,1000,0,0,39.9647,-75.6578,14
57295,57295,Alpine Solar,1,CA,Los Angeles,CISO,WECC,180.5,25,66000,2,0,34.7892,-118.5047,14
57305,57305,Adelanto Solar Project,1,CA,San Bernardino,LDWP,WECC,180,30,10000,0,0,34.550833,-117.435277,14
57306,57306,Pine Tree Solar Project,1,CA,Kern,LDWP,WECC,180,30,8500,0,0,35.229635,-118.1957,14
57308,57308,Maclay Solar Project,1,CA,Los Angeles,LDWP,WECC,180,10,2200,0,0,34.319722,-118.430833,14
57309,57309,Pacific Cruise Ship Terminals Berth 93,1,CA,Los Angeles,LDWP,WECC,190,5,1100,0,0,33.7331,-118.27722,14
57310,57310,1420 Coil Av #C,1,CA,Los Angeles,LDWP,WECC,180,30,1300,0,0,33.794283,-118.241405,14
57311,57311,Occidental College Solar Project,1,CA,Los Angeles,LDWP,WECC,220,25,1000,0,0,34.1283,-118.206903,14
57313,57313,Metro Support Services Center Solar,1,CA,Los Angeles,LDWP,WECC,180,5,1200,0,0,34.0578,-118.229722,14
57314,57314,Los Angeles Harbor College,1,CA,Los Angeles,LDWP,WECC,180,2,1200,0,0,33.783102,-118.28493,14
57317,57317,San Luis Valley Solar Ranch,1,CO,Alamosa,PSCO,WECC,180,37.694535,35000,0,2,37.694535,-105.927622,14
57318,57318,"Poseidon Solar, LLC",1,AZ,GILA,SRP,WECC,0,0,20000,0,2,33.160601,-111.484011,14
57321,57321,Mayberry Solar LLC,1PV,NC,Surry,DUK,SERC,180,25,1200,0,0,36.476667,-80.601111,14
57324,57324,Luke Solar,PV1,AZ,Maricopa,AZPS,WECC,180,33.526111,15000,0,2,33.526111,-112.37944,14
57330,57330,Kent County Wastewater Treatment Solar,1,DE,Kent,PJM,RFC,225,35,1200,0,0,38.993056,-75.4375,14
57331,57331,Mojave Solar Project,"MSP1,MSP2",CA,San Bernardino,CISO,WECC,180,35.017717,280000,0,2,35.017717,-117.339144,14
57334,57334,DE Solar 10240 Old Dowd Rd,PV01,NC,Mecklenburg,DUK,SERC,175,5,1900,0,0,35.2458,-80.9967,14
57335,57335,DE Solar 657 Brigham Rd,PV01,NC,Guilford,DUK,SERC,180,15,1300,0,0,36.1053,-79.9692,14
57336,57336,DE Solar 1725 Drywall Dr,PV01,NC,Gaston,DUK,SERC,195,11,1000,0,0,35.3261,-80.9967,14
57337,57337,Dover Sun Park,1,DE,Kent,PJM,RFC,90,45,10000,0,2,39.183611,-75.504444,14
57338,57338,Roadrunner Solar,1,NM,Dona Ana,EPE,WECC,90,45,20200,2,2,31.792778,-106.673333,14
57340,57340,Panoche Valley Solar Farm,1,CA,San Benito,CISO,WECC,0,36.627,140000,0,2,36.627,-120.879,14
57341,57341,Silver Lake Solar Farm,SILV,NJ,Middlesex,PJM,RFC,180,20,1700,0,0,40.494804,-74.399511,14
57352,57352,Trenton Solar Farm,TREN,NJ,Mercer,PJM,RFC,180,20,1000,0,0,40.2314,-74.7539,14
57359,57359,Avenal Park,1,CA,Kings,CISO,WECC,180,25,6000,2,0,35.989722,-120.11,14
57360,57360,Sun City Project LLC,1,CA,Kings,CISO,WECC,180,25,20000,2,0,35.983056,-120.110277,14
57361,57361,Sand Drag LLC,1,CA,Kings,CISO,WECC,180,25,19000,2,0,35.982778,-120.110277,14
57362,57362,Morgantown Solar Park,1,PA,Berks,PJM,RFC,165,28.4,2000,0,0,40.152069,-75.865916,14
57363,57363,510 REPP One,1,NC,Northampton,PJM,SERC,171.2,20,1300,0,0,36.4972,-77.6058,14
57367,57367,Pocono Solar Project,POCON,PA,Monroe,PJM,RFC,180,25,3000,2,0,41.061022,-75.514924,14
57368,57368,Cogentrix of Alamosa,1,CO,Alamosa,PSCO,WECC,180,37.598579,30000,0,4,37.598579,-105.955832,14
57369,57369,Questa Solar Facility,QST,NM,Taos,PNM,WECC,180,36.716944,1000,0,4,36.716944,-105.60944,14
57372,57372,Bellevue Solar Project,INV-1,OR,Yamhill,PGE,WECC,97,43,1600,0,0,45.112222,-123.234722,14
57373,57373,Agua Caliente Solar Project,"AGU1,AGU2,AGU3",AZ,Yuma,CISO,WECC,195,15,347700,2,0,32.9774,-113.4945,14
57377,57377,Greater Sandhill I,"GS-P1,GS-P2",CO,Alamosa,PSCO,WECC,0,0,19000,0,2,37.685467,-105.8909,14
57378,57378,AV Solar Ranch One,AVSR,CA,Los Angeles,CISO,WECC,180,25,253000,2,0,34.780278,-118.42444,14
57381,57381,Linden Solar Farm,LIND,NJ,Union,PJM,RFC,180,20,2700,0,0,40.62,-74.2144,14
57382,57382,Yardville Solar Farm,YARD,NJ,Mercer,PJM,RFC,195,15,3600,0,0,40.168811,-74.656719,14
57383,57383,WEA Texas Bayonne,BAYO,NJ,Hudson,PJM,RFC,209,13,1500,0,0,40.6772,-74.0919,14
57384,57384,Matrix Buildings A&B (Perth Amboy) Solar,MATR,NJ,Middlesex,PJM,RFC,165,5,2500,0,0,40.534393,-74.269998,14
57390,57390,GSK York RDC Solar Facility,1,PA,York,PJM,RFC,132,5,2600,0,0,40.043856,-76.735474,14
57392,57392,UASTP I,UATP1,AZ,Pima,TEPC,WECC,180,25,1200,0,2,32.096973,-110.8106,14
57394,57394,Genesis Solar Energy Project,"GEN01,GEN02",CA,Riverside,CISO,WECC,180,33.665,250000,0,2,33.665,-114.998055,14
57402,57402,Taylorsville Solar LLC,TAY1,NC,Alexander,DUK,SERC,0,0,1200,0,2,35.909074,-81.152498,14
57412,57412,Knouse Solar Project 1,1,PA,Cumberland,PJM,RFC,180,32,3000,0,0,40.0264,-77.2344,14
57422,57422,Yolo County Solar Project,1,CA,Yolo,CISO,WECC,180,38.659722,1000,0,4,38.659722,-121.7294,14
57435,57435,Solar Star North Carolina II LLC,"1,2,3,4,5",NC,Hertford,PJM,SERC,180,36.425,6500,0,2,36.425,-77.064,14
57438,57438,"Solar Park Gainesville, LLC",1,FL,Alachua,GVL,SERC,180,15,1600,0,0,29.700407,-82.337828,14
57439,57439,California Valley Solar Ranch,"HPR2,HPR2A,HPR2B,HPR2C,HPR2D",CA,San Luis Obispo,CISO,WECC,90,0,249800,0,2,35.323739,-119.91663,14
57441,57441,Solar Photovoltaic Project #42,"S42A,S42B,S42C,S42D,S42E,S42F,S42G,S42H,S42I,S42J",CA,Tulare,CISO,WECC,180,25,5000,0,0,36.028056,-119.074722,14
57442,57442,Silver State Solar Power North,56188,NV,Clark,NEVP,WECC,180,25,52000,2,0,35.793056,-115.35028,14
57448,57448,Pilesgrove,PILE,NJ,Salem,PJM,RFC,180,25,18000,0,0,39.613028,-75.309477,14
57455,57455,Solar Borrego I,SB1,CA,San Diego,CISO,WECC,45,45,26000,0,2,33.298889,-116.35083,14
57458,57458,145 Talmadge Solar,1,NJ,Middlesex,PJM,RFC,155,10,3800,0,0,40.535787,-74.391268,14
57461,57461,"Martins Creek Solar NC, LLC",1,NC,Cherokee,DUK,SERC,180,10,1000,0,0,35.020415,-84.015676,14
57462,57462,Napoleon Solar I,1,OH,Henry,PJM,RFC,180,0,8000,0,2,41.388431,-84.095841,14
57465,57465,Romark PA Solar,1,PA,Luzerne,PJM,RFC,180,10,1800,0,0,40.936111,-76.038888,14
57471,57471,Murray Hill Solar,MHNJ,NJ,Union,PJM,RFC,180,25,1000,0,2,40.684444,-74.404444,14
57473,57473,Dartmouth Solar,DSMA,MA,Bristol,ISNE,NPCC,180,25,1600,0,0,41.715804,-70.974448,14
57481,57481,Chittenden County Solar Partners,01,VT,Chittenden,ISNE,NPCC,180,44.436111,2200,0,4,44.436111,-73.145277,14
57485,57485,Flemington Solar,FSNJ,NJ,Hunterdon,PJM,RFC,180,25,8000,0,0,40.483888,-74.856666,14
57486,57486,Frenchtown I Solar,F1NJ,NJ,Hunterdon,PJM,RFC,180,25,3000,0,0,40.521667,-75.012222,14
57487,57487,Frenchtown II Solar,F2NJ,NJ,Hunterdon,PJM,RFC,180,25,3000,0,0,40.514444,-74.976944,14
57488,57488,Lebanon Solar,LSNJ,NJ,Hunterdon,PJM,RFC,180,25,2000,0,0,40.675833,-74.912222,14
57490,57490,Imperial Solar Energy Center South,56819,CA,Imperial,CISO,WECC,180,25,128900,2,0,32.663289,-115.658284,14
57491,57491,Imperial Solar Energy Center West,56819,CA,Imperial,CISO,WECC,180,0,148700,2,2,32.772225,-115.779311,14
57494,57494,Masser Farms Realty Solar,MFRS,PA,Schuylkill,PJM,RFC,120,30,1000,0,0,40.640556,-76.605417,14
57497,57497,Stroud Solar Station,1,CA,Fresno,CISO,WECC,180,25,20000,0,0,36.531389,-120.106944,14
57498,57498,Five Points Solar Station,1,CA,Fresno,CISO,WECC,180,25,15000,0,0,36.400278,-120.103333,14
57499,57499,Westside Solar Station,1,CA,Fresno,CISO,WECC,180,25,15000,0,0,36.378726,-120.124898,14
57506,57506,FRV SI Transport Solar LP,SEIM,CA,Sacramento,CISO,WECC,180,5,1000,0,0,38.4869,-121.3911,14
57507,57507,RV CSU Power II LLC,CSUII,CO,Larimer,PSCO,WECC,180,25,3000,0,0,40.592841,-105.147097,14
57509,57509,Carson Solar I,1,CO,El Paso,WACM,WECC,180,25,2000,0,0,38.7228,-104.7817,14
57519,57519,Trexlertown Solar Array North and South,GEN1,PA,Lehigh,PJM,RFC,150,30,1900,2,0,40.556211,-75.593873,14
57521,57521,Giffen,1,CA,Fresno,CISO,WECC,180,25,10000,0,0,36.530278,-120.316111,14
57522,57522,Cantua Solar Station,1,CA,Fresno,CISO,WECC,180,25,20000,0,0,36.425085,-120.343543,14
57523,57523,Huron Solar Station,1,CA,Fresno,CISO,WECC,180,25,20000,0,0,36.181389,-120.030555,14
57524,57524,Roger Road WWTP,1,AZ,Pima,TEPC,WECC,0,0,1100,0,2,32.2894,-111.0331,14
57534,57534,Solar Photovoltaic Project #32,"S32A,S32B,S32C",CA,San Bernardino,CISO,WECC,180,10,1500,0,0,34.031667,-117.571944,14
57535,57535,Solar Photovoltaic Project #33,"S33A,S33B",CA,San Bernardino,CISO,WECC,180,10,1000,0,0,34.0325,-117.569166,14
57554,57554,AFA Solar Farm,AFA1,CO,El Paso,WACM,WECC,0,0,5500,0,2,38.957901,-104.806627,14
57556,57556,La Senita,1,AZ,Mohave,TEPC,WECC,180,25,1000,0,2,35.241675,-114.004591,14
57559,57559,Sunset Reservoir North Basin,1,CA,San Francisco,CISO,WECC,180,6,4500,0,0,37.750894,-122.481758,14
57560,57560,Chino Solar Valley,PV1,AZ,Yavapai,AZPS,WECC,0,0,19000,0,2,34.71843,-112.42899,14
57561,57561,Cotton Center Solar Hybrid,PV1,AZ,Maricopa,AZPS,WECC,0,0,17000,0,2,33.034722,-112.661667,14
57562,57562,Paloma Solar Hybrid,PV1,AZ,Maricopa,AZPS,WECC,190,25,17600,2,0,33.021111,-112.661389,14
57563,57563,Hyder Solar Hybrid,"PV1,PV2",AZ,Yuma,AZPS,WECC,0,0,22000,0,2,33.02566,-113.34397,14
57565,57565,"RP-Orlando, LLC",1,FL,Orange,FPC,SERC,180,28.488889,5100,0,2,28.488889,-81.182222,14
57567,57567,Albuquerque Solar Energy Center,ASEC1,NM,Bernalillo,PNM,WECC,180,25,2000,2,0,35.168957,-106.60005,14
57571,57571,Los Lunas Solar Energy Center,"LLSEC,LMS2",NM,Valencia,PNM,WECC,180,25,7000,2,0,34.833136,-106.772413,14
57574,57574,ETS Ewing Solar Facility,ETS1,NJ,Mercer,PJM,RFC,153,5,1300,0,0,40.281801,-74.793638,14
57575,57575,Deming Solar Energy Center,"DSEC,HON2",NM,Luna,PNM,WECC,180,25,9000,2,0,32.165833,-107.75056,14
57576,57576,Las Vegas Solar Energy Center,LVSEC,NM,San Miguel,PNM,WECC,180,25,5000,2,0,35.643333,-105.206667,14
57577,57577,Alamogordo Solar Energy Center,AGSEC,NM,Otero,PNM,WECC,180,25,5000,2,0,32.86571,-105.999775,14
57580,57580,Broadridge Cogen,"PV1,PV2",CA,El Dorado,CISO,WECC,180,38.6183,800,2,0,38.6183,-121.0564,14
57588,57588,Matrix Stults Road Solar Facility,STULT,NJ,Middlesex,PJM,RFC,194,10,2600,0,0,40.3622,-74.4797,14
57589,57589,Long Island Solar Farm LLC,9WUBN,NY,Suffolk,NYIS,NPCC,180,28,31500,0,0,40.861111,-72.847777,14
57591,57591,"Hatch Solar Energy Center I, LLC",1,NM,Dona Ana,EPE,WECC,180,32.63,5000,0,4,32.63,-107.259722,14
57640,57640,500 Virginia Solar,1,PA,Montgomery,PJM,RFC,220,10,1000,0,0,40.139167,-75.191667,14
57645,57645,City & County of Denver at Denver Int'l,PV1,CO,Denver,PSCO,WECC,180,25,3400,0,0,39.904133,-104.654183,14
57646,57646,McCormick & Co. Inc. at Belcamp,PV1,MD,Harford,PJM,RFC,180,20,1400,0,0,39.4836,-76.2292,14
57647,57647,"Toys R Us- DE, Inc. at Mt. Olive, NJ",PV1,NJ,Morris,PJM,RFC,0,0,4100,2,0,40.818888,-74.718611,14
57650,57650,Regulus Solar Project,FRV4,CA,Kern,CISO,WECC,0,0,60000,0,2,35.3,-118.851944,14
57651,57651,Adobe Solar,FRV3,CA,KERN,CISO,WECC,90,35.102778,20000,0,2,35.102778,-118.954444,14
57652,57652,Yamhill Solar LLC,1,OR,Yamhill,PGE,WECC,175,28,1000,0,0,45.108889,-123.278611,14
57655,57655,Bakersfield College Solar 01,BC01,CA,Kern,CISO,WECC,1,1,1100,0,2,35.411817,-118.96864,14
57656,57656,"Temescal Canyon RV, LLC",1,CA,Riverside,CISO,WECC,225,2,1500,0,0,33.826389,-117.511667,14
57657,57657,Avra Valley Solar,1,AZ,Pima,TEPC,WECC,180,0,25000,2,2,32.371667,-111.282777,14
57660,57660,Vineland Mays Landing Solar,VNLND,NJ,Cumberland,PJM,RFC,90,0,4300,0,2,39.4175,-74.973889,14
57661,57661,Manalapan Village Solar,MANVL,NJ,Monmouth,PJM,RFC,180,20,3500,0,0,40.256667,-74.349722,14
57662,57662,McGraw Hill Solar,MCGRH,NJ,Mercer,PJM,RFC,180,25,12000,0,0,40.279722,-74.556389,14
57667,57667,Seabrook Solar Plant,"P21A,P21B,P2P2,SBS1",NJ,Cumberland,PJM,RFC,180,20,6800,0,0,39.485,-75.215,14
57668,57668,CASD Solar,"CASDE,CASDW",PA,Cumberland,PJM,RFC,172,30,1300,0,0,40.2142,-77.2061,14
57669,57669,SMUD at Grundman,PV1,CA,Sacramento,BANC,WECC,210,20,17000,2,0,38.364722,-121.41278,14
57670,57670,SMUD at Van Conett,PV1,CA,Sacramento,BANC,WECC,210,20,2900,2,0,38.253056,-121.278888,14
57671,57671,SMUD at Fleshman,PV1,CA,Sacramento,BANC,WECC,210,20,2900,2,0,38.237778,-121.3375,14
57673,57673,Macys Goodyear,1,AZ,Maricopa,AZPS,WECC,180,7,3500,0,0,33.409063,-112.414596,14
57674,57674,Indian Orchard PV Facility,1,MA,Hampden,ISNE,NPCC,180,20,2300,0,0,42.151389,-72.498889,14
57676,57676,Silver Lake Solar Photovoltaic Facility,1,MA,Berkshire,ISNE,NPCC,180,20,1800,0,0,42.4525,-73.2403,14
57677,57677,"Murphy Farm Power, LLC",1,NC,Cherokee,DUK,SERC,180,30,1000,0,0,34.999167,-84.157254,14
57680,57680,Arlington Valley Solar Energy II,"AVSE1,AVSE2,AVSE3,AVSE4,AVSE5",AZ,Maricopa,AZPS,WECC,90,33.305,129000,0,2,33.305,-112.833888,14
57681,57681,City of Boulder WWTP,1,CO,Boulder,PSCO,WECC,180,30,1000,0,0,40.048025,-105.180327,14
57682,57682,City of Madera WWTP,1,CA,Madera,CISO,WECC,180,36.9408,1200,0,4,36.9408,-120.1572,14
57683,57683,"Staples La Mirada, CA",1,CA,Los Angeles,CISO,WECC,180,20,1100,0,0,33.881667,-118.0175,14
57685,57685,Rinehart,1,FL,Seminole,FPC,SERC,180,28.770601,10000,0,0,28.770601,-81.353336,14
57687,57687,"CS Murphy Point, LLC",1,NC,Cherokee,DUK,SERC,180,30,1000,0,0,34.989539,-84.166197,14
57695,57695,Topaz Solar Farm,"TPZ1,TPZ2,TPZ3,TPZ4,TPZ5",CA,San Luis Obispo,CISO,WECC,180,25,585900.0000000001,2,0,35.405556,-120.068611,14
57697,57697,Aerojet I,1,CA,Sacramento,BANC,WECC,225,45,3000,0,2,38.613508,-121.162879,14
57698,57698,Aerojet II,1,CA,Sacramento,BANC,WECC,225,45,2700,0,2,38.6086,-121.1703,14
57699,57699,Webberville Solar Project,AES1,TX,Travis,ERCO,TRE,180,0,30000,0,2,30.238492,-97.508812,14
57707,57707,Mesquite Solar 1,"1,10,11,12,2,3,4,5,6,7,8,9",AZ,Maricopa,CISO,WECC,180,20,170000,0,0,33.341833,-112.904028,14
57708,57708,Catalina Solar LLC,INV,CA,Kern,CISO,WECC,178,20,110000,2,0,34.938261,-118.334492,14
57722,57722,North Palm Springs 4A,1,CA,Riverside,CISO,WECC,225,45,4000,0,2,33.909722,-116.5625,14
57723,57723,"Johnson Matthey, Inc. Solar",PV1,NJ,Gloucester,PJM,RFC,180,39.825278,4000,0,2,39.825278,-75.219722,14
57724,57724,NJMC Landfill,NJMC,NJ,Hudson,PJM,RFC,175,20,2500,0,0,40.750833,-74.11,14
57726,57726,Summit Associates,SUMA,NJ,Middlesex,PJM,RFC,144,12.5,1900,0,0,40.5003,-74.3536,14
57727,57727,BlackRock-Matrix,BLAR,NJ,Middlesex,PJM,RFC,202,10,2500,0,0,40.3622,-74.4797,14
57728,57728,Mill Creek Solar,MILLC,NJ,Burlington,PJM,RFC,191,22,3500,2,0,40.031388,-74.824722,14
57733,57733,Benjamin Moore & Co. Solar,PV1,NJ,Morris,PJM,RFC,180,35,1400,0,0,40.825556,-74.714722,14
57734,57734,Cherry Hill,CH,NJ,Camden,PJM,RFC,180,0,1100,0,0,39.876111,-75.008611,14
57736,57736,SPS1 Dollarhide,1,NM,Lea,SWPP,WECC,180,0,10000,0,2,32.12743,-103.137825,14
57737,57737,SPS2 Jal,1,NM,Lea,SWPP,WECC,180,0,10000,0,2,32.183611,-103.183056,14
57738,57738,SPS3 Lea,1,NM,Lea,SWPP,WECC,180,0,10000,0,2,32.469722,-103.323333,14
57739,57739,SPS4 Monument,1,NM,Lea,SWPP,WECC,180,0,10100,0,2,32.681944,-103.303611,14
57740,57740,SPS5 Hopi,1,NM,Eddy,SWPP,WECC,180,0,10100,0,2,32.345556,-104.234722,14
57742,57742,Vineland Headquarters,VHQ,NJ,Cumberland,PJM,RFC,180,5,1100,0,0,39.490271,-75.037391,14
57743,57743,North Palm Springs 1A,1,CA,Riverside,CISO,WECC,225,45,2500,0,2,33.924167,-116.593333,14
57745,57745,The City of Vineland at West Vineland,PV1,NJ,Cumberland,PJM,RFC,180,25,3700,0,0,39.462376,-75.070039,14
57746,57746,The City of Vineland at North Vineland,PV1,NJ,Cumberland,PJM,RFC,180,25,2300,0,0,39.505034,-74.997703,14
57747,57747,FedEx Field Solar Facility,1,MD,Prince Georges,PJM,RFC,180,38.907778,2000,0,0,38.907778,-76.864444,14
57750,57750,Maple Solar,"P1,P2",NJ,Cumberland,PJM,RFC,180,27,2400.0000000000005,0,0,39.4875,-74.980833,14
57753,57753,SMUD at Lawrence,PV1,CA,Sacramento,BANC,WECC,210,20,1000,2,0,38.338868,-121.431342,14
57758,57758,Mount Saint Mary's,PV1,MD,Frederick,PJM,RFC,157,25,13700,2,0,39.675,-77.345,14
57764,57764,Naval Air Weapons Station China Lake,1,CA,Kern,CISO,WECC,0,0,11100,0,2,35.68771,-117.68137,14
57768,57768,Longwood Gardens,1,PA,Chester,PJM,RFC,180,30,1300,0,0,39.866667,-75.667777,14
57772,57772,Perdue Bridgeville Photovoltaic,BRID,DE,Sussex,PJM,RFC,180,25,1300,0,0,38.757689,-75.602031,14
57773,57773,Palo Verde College,1,CA,Riverside,CISO,WECC,0,30,1200,0,2,33.661667,-114.651667,14
57775,57775,Kingman 1,PV,AZ,Mohave,AZPS,WECC,90,35.145833,500,0,2,35.145833,-114.0675,14
57776,57776,FedEx Woodbridge,1,NJ,Middlesex,PJM,RFC,137,2,2400,0,0,40.506358,-74.323519,14
57777,57777,RE Dillard 1 LLC,DL1,CA,Sacramento,BANC,WECC,90,38.468611,3000,0,2,38.468611,-121.181944,14
57778,57778,RE Kammerer 1 LLC,KAM1,CA,Sacramento,BANC,WECC,90,38.365053,5000,0,2,38.365053,-121.381101,14
57779,57779,RE Dillard 2 LLC,DIL2,CA,Sacramento,BANC,WECC,90,38.466111,3000,0,2,38.466111,-121.177778,14
57780,57780,RE Kammerer 2 LLC,KAM2,CA,Sacramento,BANC,WECC,90,38.365053,5000,0,2,38.365053,-121.381101,14
57781,57781,RE Dillard 3 LLC,DIL3,CA,Sacramento,BANC,WECC,90,38.461944,3000,0,2,38.461944,-121.180278,14
57782,57782,RE Kammerer 3 LLC,KAM3,CA,Sacramento,BANC,WECC,90,38.365053,5000,0,2,38.365053,-121.381101,14
57783,57783,RE Bruceville 1 LLC,BRU1,CA,Sacramento,BANC,WECC,90,38.3475,5000,0,2,38.3475,-121.412777,14
57784,57784,RE Bruceville 2 LLC,BRU2,CA,Sacramento,BANC,WECC,90,38.3475,5000,0,2,38.3475,-121.412777,14
57785,57785,RE Bruceville 3 LLC,BRU3,CA,Sacramento,BANC,WECC,90,38.3475,5000,0,2,38.3475,-121.412777,14
57790,57790,RE Bagdad Solar I LLC,1,AZ,Yavapai,AZPS,WECC,180,34.585833,14900,0,2,34.585833,-113.177222,14
57795,57795,RE Ajo 1 LLC,1,AZ,Pima,AZPS,WECC,180,32.367013,4500,0,2,32.367013,-112.831401,14
57796,57796,Golden Springs Building C-1,1,CA,Los Angeles,CISO,WECC,180,10,1200,0,0,33.914167,-118.053611,14
57797,57797,Golden Springs Building D,1,CA,Los Angeles,CISO,WECC,180,10,1300,0,0,33.911944,-118.052222,14
57799,57799,"ISH Solar Central, LLC",1,NJ,Monmouth,PJM,RFC,180,35,1400,0,0,40.2675,-74.278611,14
57805,57805,William Paterson University,WPU1,NJ,Passaic,PJM,RFC,180,15,1400,0,0,40.952084,-74.195502,14
57806,57806,RE Dillard 4 LLC,DIL4,CA,Sacramento,BANC,WECC,90,38.461944,400,0,2,38.461944,-121.180278,14
57815,57815,Titusville Solar,PV1,NJ,Mercer,PJM,NPCC,90,0,4100,2,2,40.292778,-74.847222,14
57816,57816,RE McKenzie 1 LLC,MCK1,CA,Sacramento,BANC,WECC,90,38.302594,5000,0,2,38.302594,-121.295819,14
57817,57817,RE McKenzie 2 LLC,MCK2,CA,Sacramento,BANC,WECC,90,38.302594,5000,0,2,38.302594,-121.295819,14
57818,57818,RE McKenzie 3 LLC,MCK3,CA,Sacramento,BANC,WECC,90,38.302594,5000,0,2,38.302594,-121.295819,14
57819,57819,RE McKenzie 4 LLC,MCK4,CA,Sacramento,BANC,WECC,90,38.302594,5000,0,2,38.302594,-121.295819,14
57820,57820,RE McKenzie 5 LLC,MCK5,CA,Sacramento,BANC,WECC,90,38.302594,5000,0,2,38.302594,-121.295819,14
57821,57821,RE McKenzie 6 LLC,MCK6,CA,Sacramento,BANC,WECC,90,38.302594,5000,0,2,38.302594,-121.295819,14
57827,57827,Dinuba Wastewater Treatment Plant,DSPV,CA,Tulare,CISO,WECC,90,36.538056,1000,0,2,36.538056,-119.426388,14
57831,57831,Heliocentric,1,CA,Los Angeles,CISO,WECC,180,30,1500,0,0,34.65434,-117.971004,14
57836,57836,L-8 Solar Project,TSM,CA,Los Angeles,CISO,WECC,180,30,1500,0,0,34.654347,-117.973103,14
57838,57838,Dartmouth II Solar,D2MA,MA,Bristol,ISNE,NPCC,180,25,2000,0,0,41.680556,-71.030833,14
57840,57840,ISH Solar Hospital SDMC,1,CA,San Diego,CISO,WECC,0,5,1100,0,0,32.791667,-117.095277,14
57841,57841,ISH Solar Hospital Downey,1,CA,Los Angeles,CISO,WECC,0,10,1100,0,0,33.921667,-118.124444,14
57848,57848,WC Landfill Energy LLC,SOLAR,NJ,Warren,PJM,RFC,180,25,1000,0,0,40.831012,-75.015775,14
57849,57849,Green Acres Solar Facility 1,GASF1,CA,Sacramento,BANC,WECC,90,38.282021,3000,0,2,38.282021,-121.464676,14
57850,57850,Green Acres Solar Facility 2,GASF2,CA,Sacramento,BANC,WECC,0,0,1000,0,2,38.28357,-121.461264,14
57856,57856,Univ of California San Diego Solar,SGU1,CA,San Diego,CISO,WECC,180,20,1200,0,0,32.874379,-117.238927,14
57859,57859,Moapa Southern Paiute,1,NV,Clark,NEVP,WECC,180,30,250000,2,0,36.52995,-114.770308,14
57860,57860,Industry MetroLink PV 1,1,CA,Los Angeles,CISO,WECC,223,5,1500,0,0,34.008661,-117.845603,14
57863,57863,McKee City Solar Phase 2,UNIT1,NJ,Atlantic,PJM,RFC,180,20,2400,0,0,39.421944,-74.639167,14
57869,57869,Heller Industrial Parks,"HH,HII,HJC,HM,UNIT1",NJ,Middlesex,PJM,RFC,190,15,4600.000000000001,0,0,40.373898,-74.489236,14
57870,57870,Castle Rock Vineyards,SOLAR,CA,Tulare,CISO,WECC,180,20,1000,0,0,35.801111,-119.110556,14
57871,57871,2555 E Olympic Bl,1,CA,Los Angeles,LDWP,WECC,170,15,1000,0,0,34.026944,-118.224167,14
57879,57879,Perdue Salisbury Photovoltaic,SALI,MD,Wicomico,PJM,RFC,180,30,1000,0,0,38.373611,-75.535278,14
57882,57882,Baldock Solar Highway,BSH1,OR,Clackamas,PGE,WECC,180,21,1700,0,0,45.269444,-122.771667,14
57883,57883,Queen Creek Solar Farm,GEN1,AZ,Maricopa,SRP,WECC,90,33.2675,19000,0,2,33.2675,-111.612222,14
57891,57891,Guernsey Solar Station,1,CA,Kings,CISO,WECC,90,0,20000,0,2,36.163889,-119.650556,14
57892,57892,Gates Solar Station,1,CA,Fresno,CISO,WECC,180,25,20000,0,0,36.176389,-120.114167,14
57895,57895,Improvement Dst No. 4,ID4,CA,Kern,CISO,WECC,180,22,1100,0,0,35.402778,-119.038611,14
57900,57900,Solar Photovoltaic Project #48,"S48A,S48B,S48C,S48D,S48E,S48F,S48G,S48H,S48I,S48J",CA,San Bernardino,CISO,WECC,180,10,5000,0,0,34.081111,-117.228056,14
57904,57904,San Antonio West Solar Rooftop,CHNO,CA,Riverside,CISO,WECC,180,20,1500,0,0,33.965617,-117.659059,14
57912,57912,Grand Ridge Solar Farm,1,IL,LaSalle,PJM,RFC,180,25,20000,2,0,41.143421,-88.758341,14
57930,57930,FRB Solar Farm,UAST,AZ,Pima,TEPC,WECC,180,32.108147,1900,0,4,32.108147,-110.824662,14
57931,57931,Holyoke Solar Cooperative at Mueller,PV1,MA,Hampden,ISNE,NPCC,177,15,2700,0,0,42.190909,-72.682421,14
57933,57933,Solar Star California II LLC,1,CA,Sacramento,BANC,WECC,180,38.516389,2000,0,2,38.516389,-121.47528,14
57934,57934,Douglas Solar,DOMA,MA,Worcester,ISNE,NPCC,180,25,2000,0,0,42.06,-71.73,14
57941,57941,Town of Uxbridge MA at Commerce Dr,PV1,MA,Worcester,ISNE,NPCC,180,20,1800,0,0,42.043889,-71.6175,14
57942,57942,Town of Norfolk MA at Medway Branch,PV1,MA,Norfolk,ISNE,NPCC,180,20,1200,0,0,42.127778,-71.340278,14
57948,57948,NJ Oak Solar Plant,OAK,NJ,Cumberland,PJM,RFC,180,15,10000,0,0,39.380565,-75.188312,14
57951,57951,Shore Point Solar,1,NJ,Monmouth,PJM,RFC,180,45,1000,2,0,40.245,-74.243333,14
57959,57959,Desert Green Solar Farm LLC,1,CA,San Diego,CISO,WECC,180,33.27055,6300,0,4,33.27055,-116.34805,14
57970,57970,Butte College Main Campus Solar,SOL1,CA,Butte,CISO,WECC,195,18,3500,0,0,39.648056,-121.644167,14
57982,57982,Meridian Vineyards,"PV-1,PV-2",CA,San Luis Obispo,CISO,WECC,180,30,1100,0,0,35.670278,-120.566944,14
57985,57985,SunE EPE2 LLC,1,NM,Dona Ana,EPE,WECC,180,38,12000,0,2,32.251667,-106.913333,14
57986,57986,SunE EPE1 LLC,1,NM,Dona Ana,EPE,WECC,180,38,10000,0,2,32.034383,-106.340986,14
57989,57989,Groveland Solar,GSMA,MA,Essex,ISNE,NPCC,180,25,3200,0,0,42.751111,-71.037222,14
57990,57990,Shrewsbury Solar,SSMA,MA,Worcester,ISNE,NPCC,180,25,2500,0,0,42.266111,-71.695833,14
57992,57992,Boston Scientific Solar,BSMA,MA,Norfolk,ISNE,NPCC,170,10,1100,0,0,42.293333,-71.033889,14
57993,57993,"Desert Sunlight 300, LLC","DSL1,DSL10,DSL11,DSL2,DSL3,DSL4,DSL5,DSL6,DSL7,DSL8,DSL9",CA,Riverside,CISO,WECC,120,22.5,313699.99999999994,2,0,33.823056,-115.393889,14
57994,57994,Apple Data Center PV,PV1,NC,Catawba,DUK,SERC,90,35.588135,21000,0,2,35.588135,-81.25198,14
57997,57997,Foothills Solar Plant Hybrid,"PV1,PV2",AZ,Yuma,AZPS,WECC,0,0,35000,0,2,32.64856,-114.428741,14
58002,58002,Alpaugh North,SPS,CA,Tulare,CISO,WECC,0,0,20000,0,2,35.9025,-119.442778,14
58003,58003,Alpaugh 50,SPS50,CA,Tulare,CISO,WECC,0,0,50000,0,2,35.898333,-119.435278,14
58006,58006,Salt Palace Solar Gen Plant,"1,2",UT,Salt Lake,PACE,WECC,180,10,1300,0,0,40.767222,-111.895,14
58009,58009,SunE CPS3 LLC,"1,2",TX,Bexar,ERCO,TRE,0,45,10600,0,2,29.221944,-98.669167,14
58011,58011,IKEA Savannah 490,PV,GA,Chatham,SOCO,SERC,180,12,1200,0,0,32.177535,-81.173775,14
58012,58012,IKEA Tampa 042,PV,FL,Hillsborough,TEC,SERC,180,12,1000,0,0,27.953889,-82.4325,14
58013,58013,IKEA Round Rock 027,PV,TX,Williamson,ERCO,TRE,180,12,1400,0,0,30.557044,-97.690286,14
58014,58014,IKEA Perryville 460,PV,MD,Cecil,PJM,RFC,180,12,2100,2,0,39.560833,-76.055278,14
58015,58015,IKEA College Park 411,PV,MD,Prince Georges,PJM,RFC,180,12,1000,0,0,39.021,-76.926,14
58016,58016,IKEA Westhampton 061,PV,NJ,Burlington,PJM,RFC,180,12,1800,2,0,40.013889,-74.853611,14
58017,58017,Copper Mountain Solar 2,"PV01,PV02,PV03,PV04,PV05",NV,Clark,CISO,WECC,180,25,154000,2,0,35.786389,-114.962778,14
58027,58027,SunE CPS2 LLC,1,TX,Bexar,ERCO,TRE,0,45,10000,0,2,29.245,-98.418333,14
58028,58028,IKEA Tejon 345,PV,CA,Kern,CISO,WECC,180,12,1500,0,0,34.975278,-118.946944,14
58029,58029,Constellation New Energy Inc,PV1,NJ,Burlington,PJM,RFC,180,20,3900,0,0,39.928889,-74.818056,14
58030,58030,Reeves Station Rd East,REEVE,NJ,Burlington,PJM,RFC,180,25,5400,0,0,39.928333,-74.814444,14
58032,58032,Padelford Solar,PSMA,MA,Bristol,ISNE,NPCC,180,25,2200,0,0,41.853333,-71.065,14
58034,58034,Nickel 1 Solar Facility,1,CA,Kern,CISO,WECC,180,25,1500,0,0,35.647295,-119.716512,14
58036,58036,Riverside Renewable Energy LLC,1,NJ,Camden,PJM,RFC,180,5,7500,0,0,39.903056,-75.125833,14
58037,58037,Buckeye Union HS District 201,PV1,AZ,Maricopa,AZPS,WECC,180,8,3300,0,0,33.419167,-112.576111,14
58039,58039,Axium Modesto Solar,1,CA,Stanislaus,CISO,WECC,0,0,25000,0,2,37.734167,-120.995556,14
58040,58040,United Stationers Supply Solar Electric,"SEF-A,SEF-B",NJ,Middlesex,PJM,RFC,188,11.8,2800,0,0,40.320556,-74.501667,14
58042,58042,Black Mountain Solar LLC,1,AZ,Mohave,AZPS,WECC,180,35.0227,9000,0,2,35.0227,-114.1627,14
58049,58049,Jordache Enterprises Solar,PV,NJ,Middlesex,PJM,NPCC,0,0,1300,2,0,40.55569,-74.40836,14
58056,58056,"Irwindale Brew Yard, LLC",PV,CA,Los Angeles,CISO,WECC,28,28,2500,0,2,34.121667,-117.938333,14
58062,58062,Imperial Valley Solar Company 1 LLC,0001,CA,Imperial,IID,WECC,180,30,23000,0,0,33.245833,-115.496667,14
58064,58064,Laredo Bus Facility Solar Canopies,LBFS,GA,DeKalb,SOCO,SERC,180,20,1000,0,0,33.783333,-84.267778,14
58068,58068,SunE CPS1 LLC,1,TX,Bexar,ERCO,TRE,90,45,10000,0,2,29.245,-98.418333,14
58070,58070,Mercer Mall,1,NJ,Mercer,PJM,RFC,155,15,1100,0,0,40.290556,-74.681944,14
58073,58073,SEPV 1,SEPV,CA,Los Angeles,CISO,WECC,90,34.618861,2000,0,2,34.618861,-117.939444,14
58074,58074,SEPV 2,SEPV,CA,San Bernardino,CISO,WECC,90,34.174167,2000,0,2,34.174167,-116.152778,14
58076,58076,Edwards Air Force Base,"1,2,3",CA,Kern,CISO,WECC,180,20,3000,0,2,34.9077,-117.9206,14
58082,58082,AMP Napoleon Solar Facility,NSF1,OH,Henry,PJM,RFC,180,30,3500,0,0,41.406667,-84.110833,14
58090,58090,Middlesex Apple Orchard Solar,"SEF-1,SEF-2",NJ,Middlesex,PJM,RFC,149,20,4700,0,0,40.426389,-74.492222,14
58091,58091,Keystone Solar,KSTN,PA,Lancaster,PJM,RFC,182,25,5000,0,0,39.861111,-76.221111,14
58093,58093,BBB Corporate Headquarters,HQNJ,NJ,Union,PJM,RFC,180,10,1000,0,0,40.697222,-74.305,14
58094,58094,Christmas Tree Shops DC Burlington NJ,FINJ,NJ,Burlington,PJM,RFC,180,10,2100,0,0,40.104167,-74.812778,14
58095,58095,Harmon DC Totowa NJ,TONJ,NJ,Passaic,PJM,RFC,180,10,1500,0,0,40.903889,-74.247778,14
58096,58096,Bed Bath & Beyond DC Port Reading NJ,PTNJ,NJ,Middlesex,PJM,RFC,180,5,1800,0,0,40.568333,-74.2425,14
58097,58097,Green Meadows,1,MA,Barnstable,ISNE,NPCC,180,25,3500,0,0,41.669444,-70.531944,14
58118,58118,La Joya Del Sol,JDS1,CA,Fresno,CISO,WECC,90,36.678611,1500,0,2,36.678611,-119.7975,14
58119,58119,Depot Park Solar System,DPSS,CA,Sacramento,BANC,WECC,180,38.515,3000,0,0,38.515,-121.398333,14
58123,58123,Wakefern Food Corp,1,NJ,Middlesex,PJM,RFC,187,14,2000,0,0,40.51,-74.328333,14
58131,58131,Outback Solar At Christmas Valley,PV1,OR,Lake,BPAT,WECC,180,43.236944,4400,0,2,43.236944,-120.49,14
58134,58134,Oberlin Spear Point Solar One,OSSO,OH,Lorain,PJM,RFC,0,0,2000,0,2,41.302761,-82.227047,14
58135,58135,Washington White Post Solar LLC,1,NC,Beaufort,CPLE,SERC,180,25,12400,0,0,35.5052,-76.8484,14
58144,58144,SVEP Solar Project Company,SVEP1,VT,Bennington,ISNE,NPCC,0,30,2000,0,2,42.753611,-73.226111,14
58145,58145,Williamstown Solar,WTS_1,VT,Orange,ISNE,NPCC,180,30,2000,0,0,44.113056,-72.605833,14
58147,58147,Prescott Solar Plant,PV1,AZ,Yavapai,AZPS,WECC,0,0,10800,0,2,34.649444,-112.4275,14
58148,58148,RE Kansas South LLC,KS,CA,Kings,CISO,WECC,0,0,20000,0,2,36.226111,-119.834167,14
58149,58149,TA-High Desert LLC,TAHD,CA,Los Angeles,CISO,WECC,0,0,20000,0,2,34.708889,-118.304722,14
58150,58150,Black Cap Solar Plant,1,OR,Lake,PACW,WECC,90,0,2000,0,2,42.17505,-120.362631,14
58164,58164,Slayton Solar,PV1,MN,Murray,MISO,MRO,180,35,1700,0,0,43.980278,-95.767222,14
58169,58169,CSUF Trigeneration,"CPAC,KHS,NPS,PS4,PS5,SCPS",CA,Orange,CISO,WECC,180,10,4300,0,0,33.880638,-117.88656,14
58170,58170,Crafton Hills College Solar Farm,GEN1,CA,San Bernardino,CISO,WECC,180,34.043056,1300,0,4,34.043056,-117.098889,14
58171,58171,Prairie Fire,GEN1,AZ,Pima,TEPC,WECC,180,25,4500,0,0,32.116389,-110.82,14
58174,58174,Wilson Solar,WSMA,MA,Worcester,ISNE,NPCC,180,25,2000,0,0,42.264167,-71.98,14
58178,58178,M. G. Emmett J. Bean Federal Center,1,IN,Marion,MISO,RFC,180,18,2000,0,0,39.853056,-86.014444,14
58187,58187,180 Raritan Solar,1,NJ,Middlesex,PJM,RFC,188,10,1900,0,0,40.516111,-74.34,14
58202,58202,RE Victor Phelan Solar One LLC,VPS1,CA,San Bernardino,CISO,WECC,90,34.51231,20000,0,2,34.51231,-117.47753,14
58204,58204,Grassland 3&4 Solar Project,INV3,CA,Yolo,CISO,WECC,180,38.500278,2500,0,4,38.500278,-121.694167,14
58206,58206,West Gates Solar Station,1,CA,Fresno,CISO,WECC,180,25,10000,0,0,36.142222,-120.1325,14
58210,58210,NFM Solar Power LLC,1,MA,Franklin,ISNE,NPCC,180,20,1900,2,0,42.610833,-72.474167,14
58213,58213,Saddle Mountain Solar I,AZ2,AZ,Maricopa,AZPS,WECC,0,0,15000,0,2,33.378333,-113.180833,14
58214,58214,West Greenwich Solar,WGRI,RI,Kent,ISNE,NPCC,180,25,1900,0,0,41.649444,-71.71,14
58217,58217,Grassland 1&2 Solar Project,INV4,CA,Yolo,CISO,WECC,180,38.500278,2500,0,4,38.500278,-121.694167,14
58226,58226,Newberry Solar 1 LLC,1,CA,San Bernardino,CISO,WECC,180,34.853581,1500,0,4,34.853581,-116.683108,14
58227,58227,SEPV9 Power Plant,SPV9,CA,San Bernardino,CISO,WECC,180,34.192222,9000,0,2,34.192222,-116.090278,14
58228,58228,Milford Solar Farm,GEN1,DE,Kent,PJM,RFC,180,20,11800,0,0,38.923056,-75.453333,14
58231,58231,Lincoln Financial Field,GEN1,PA,Philadelphia,PJM,RFC,180,39.900833,2900,0,0,39.900833,-75.1675,14
58232,58232,Tahquitz High School,TAHQ,CA,Riverside,CISO,WECC,90,33.767222,1000,0,2,33.767222,-117.0175,14
58234,58234,SEPV 8,SPV8,CA,San Bernardino,CISO,WECC,180,34.171944,12000,0,2,34.171944,-116.1525,14
58236,58236,Marshalltown Generating Station,PV1,IA,Marshall,MISO,MRO,180,25,2600,0,0,42.043333,-92.872778,14
58239,58239,Kent County-Kennedyville,PVKV,MD,Kent,PJM,RFC,180,25,1000,0,0,39.297222,-75.982222,14
58240,58240,Kit Carson,PV_KC,NM,Taos,PNM,WECC,0,0,1300,0,2,36.966667,-105.438056,14
58241,58241,Rock Hall,RCKHL,MD,Kent,PJM,RFC,180,25,1000,0,0,39.144369,-76.231644,14
58243,58243,Kent County - Worton Complex,WRTN,MD,Kent,PJM,RFC,180,25,1000,0,0,39.280833,-76.090833,14
58244,58244,West Valley High School Solar,WEST,CA,Riverside,CISO,WECC,90,33.719722,1000,0,2,33.719722,-117.009722,14
58248,58248,Pierce College,GEN1,CA,Los Angeles,LDWP,WECC,180,2,1900,0,0,34.183611,-118.574722,14
58249,58249,VA Sepulveda Ambulatory Care Center,GEN1,CA,Los Angeles,LDWP,WECC,180,10,3500,0,0,34.248889,-118.483333,14
58253,58253,CBS Television City,GEN1,CA,Los Angeles,LDWP,WECC,270,5,1600,0,0,34.075,-118.36,14
58256,58256,Los Alamos PV Site,1,NM,Los Alamos,PNM,WECC,180,37,1000,0,0,35.875556,-106.31,14
58261,58261,FAA NorCal TRACON,1,CA,Sacramento,BANC,WECC,90,0,1000,0,0,38.559533,-121.257556,14
58262,58262,Badger 1,1,AZ,Maricopa,AZPS,WECC,90,33.498003,14800,0,2,33.498003,-112.813458,14
58270,58270,Acushnet AD Makepeace,1,MA,Plymouth,ISNE,NPCC,180,30,4700,0,0,41.798889,-70.743611,14
58271,58271,Acushnet Hawes Reed Road,1,MA,Bristol,ISNE,NPCC,172,25,1000,0,0,41.662222,-71.0425,14
58272,58272,Easthampton Landfill-City of Easthampton,1,MA,Hampshire,ISNE,NPCC,180,30,1900,0,0,42.286944,-72.701389,14
58273,58273,South Robeson Farm,SROB,NC,Robeson,CPLE,SERC,180,25,5000,0,0,34.561146,-79.28097,14
58274,58274,Raeford Farm,RAEF,NC,Hoke,CPLE,SERC,180,25,5000,0,0,34.968889,-79.211944,14
58275,58275,Mass Midstate Solar 3,1,MA,Worcester,ISNE,NPCC,180,25,4000,0,0,42.219722,-71.878611,14
58276,58276,Mass Midstate Solar 2,1,MA,Worcester,ISNE,NPCC,180,25,5000,0,0,42.170417,-72.200145,14
58279,58279,Mass Midstate Solar 1,1,MA,Worcester,ISNE,NPCC,180,25,5000,0,0,42.219722,-71.878333,14
58280,58280,Millbury Solar,1,MA,Worcester,ISNE,NPCC,180,25,3000,0,0,42.164722,-71.795,14
58282,58282,Leicester One MA Solar LLC,1,MA,Worcester,ISNE,NPCC,180,10,4800,0,0,42.222778,-71.878611,14
58283,58283,Freetown Solar,1,MA,Bristol,ISNE,NPCC,180,25,4500,0,0,41.766389,-70.980833,14
58289,58289,Venable Solar 1,VNPV,CA,Riverside,CISO,WECC,198,20,1500,0,0,33.598889,-114.571667,14
58290,58290,Venable Solar 2,VSPV,CA,Riverside,CISO,WECC,198,20,1500,0,0,33.597222,-114.571667,14
58292,58292,Jewish Community Center PV,JCC,AZ,Maricopa,AZPS,WECC,180,5,1100,0,0,33.603056,-111.924722,14
58293,58293,Paradise Valley H.S. PV,PVH,AZ,Maricopa,AZPS,WECC,180,5,1300,0,0,33.6416,-111.9997,14
58304,58304,Kingsburg Solar,"1,2,3",CA,Tulare,CISO,WECC,180,20,3700,0,0,36.505278,-119.540278,14
58305,58305,PCIP Solar,PCIP,NC,Person,CPLE,SERC,180,26,1000,0,0,36.3125,-78.9675,14
58306,58306,Exeter Solar,"1,2,3",CA,Tulare,CISO,WECC,180,20,3500,0,0,36.2675,-119.128581,14
58307,58307,Ivanhoe Solar,"1,2,3",CA,Tulare,CISO,WECC,180,20,3500,0,0,36.3875,-119.255,14
58308,58308,Lindsay Solar,"1,3,4",CA,Tulare,CISO,WECC,180,20,4000,0,0,36.211944,-119.133889,14
58309,58309,Porterville Solar,"1,2,5",CA,Tulare,CISO,WECC,180,20,3500,0,0,36.102778,-119.039722,14
58311,58311,Chadbourn Farm,1,NC,Columbus,CPLE,SERC,180,25,5000,0,0,34.324656,-78.764901,14
58312,58312,Warrenton Farm,1,NC,Warren,CPLE,SERC,180,20,4000,0,0,36.415,-78.171111,14
58313,58313,Mocksville Farm,1,NC,Davie,CPLE,SERC,180,25,5000,0,0,35.878611,-80.541944,14
58314,58314,Belwood Farm,1,NC,Cleveland,CPLE,SERC,180,25,4000,0,0,35.47,-81.508333,14
58315,58315,Arndt Farm,1,NC,Catawba,DUK,SERC,180,25,5000,0,0,35.779167,-81.175556,14
58316,58316,Railroad Farm,1,NC,Robeson,CPLE,SERC,180,25,5000,0,0,34.82,-78.970833,14
58317,58317,Watts Farm,1,NC,Robeson,CPLE,SERC,180,25,5000,0,0,34.726944,-79.335278,14
58318,58318,Farrington Farm,1,NC,Chatham,CPLE,SERC,180,25,1000,0,0,35.832778,-79.025,14
58319,58319,"Patua Acquisition Project, LLC",PV-01,NV,Churchill,NEVP,WECC,90,60,10600,0,2,39.585833,-119.073056,14
58323,58323,Shannon Farm,1,NC,Robeson,CPLE,SERC,180,25,5000,0,0,34.8475,-79.128889,14
58329,58329,UMMS at Pocomoke,PV1,MD,Somerset,PJM,RFC,180,20,2800,0,0,38.098056,-75.611111,14
58332,58332,Haynes Farm,1,NC,Lincoln,DUK,SERC,180,20,5000,0,0,35.525833,-81.235278,14
58333,58333,Lenoir Farm,1,NC,Lenoir,CPLE,SERC,190,25,5000,0,0,35.331667,-77.666389,14
58334,58334,Lenoir Farm 2,1,NC,Lenoir,CPLE,SERC,188,25,5000,0,0,35.35,-77.475,14
58335,58335,Marshville Farm,1,NC,Union,DUK,SERC,180,25,5000,0,0,34.988889,-80.383611,14
58336,58336,Mile Farm,1,NC,Durham,CPLE,SERC,180,20,5000,0,0,36.230561,-78.949586,14
58337,58337,Moore Solar Farm,1,NC,Rockingham,DUK,SERC,180,20,5000,0,0,36.273192,-79.759203,14
58338,58338,Moorings Farm,1,NC,Wayne,CPLE,SERC,182,25,5000,0,0,35.305833,-77.829167,14
58339,58339,New Bern Farm,1,NC,Craven,CPLE,SERC,200,20,5000,0,0,35.209564,-77.056725,14
58340,58340,Roxboro Farm,1,NC,Person,CPLE,SERC,180,25,5000,0,0,36.4797,-78.917364,14
58341,58341,White Cross Farm,1,NC,Orange,DUK,SERC,180,25,5000,0,0,35.907144,-79.188297,14
58342,58342,Wilson Farm 1,1,NC,Wilson,CPLE,SERC,180,25,5000,0,0,35.803611,-77.873611,14
58343,58343,Yanceyville Farm,1,NC,Caswell,CPLE,SERC,180,20,5000,0,0,36.439444,-79.278889,14
58344,58344,AM Best Farm,1,NC,Wayne,CPLE,SERC,190,20,5000,0,0,35.418889,-77.985556,14
58345,58345,Mt Olive Farm 2,1,NC,Wayne,CPLE,SERC,180,25,5000,0,0,35.218056,-78.069722,14
58346,58346,Dibrell Farm,1,NC,Rockingham,DUK,SERC,190,20,5000,0,0,36.471667,-79.528056,14
58347,58347,Rock Farm,1,NC,Richmond,CPLE,SERC,195,25,5000,0,0,34.965556,-79.609722,14
58348,58348,Two Lines Farm,1,NC,Catawba,DUK,SERC,195,20,5000,0,0,35.629167,-81.326667,14
58349,58349,Bolton Farm,1,NC,Warren,CPLE,SERC,176,20,5000,0,0,36.421617,-78.132311,14
58350,58350,McCallum Farm,1,NC,Robeson,CPLE,SERC,180,20,5000,0,0,34.543889,-79.3,14
58354,58354,Radiance Solar 4,1,CA,Los Angeles,CISO,WECC,200,25,1500,0,0,34.665556,-118.288056,14
58355,58355,Radiance Solar 5,1,CA,Los Angeles,CISO,WECC,200,25,1500,0,0,34.665556,-118.286944,14
58356,58356,The Lawrenceville School Solar Facility,TLS,NJ,Mercer,PJM,RFC,160,40.301409,5200,0,2,40.301409,-74.722117,14
58357,58357,Amazon,WR,NJ,Middlesex,PJM,RFC,154,16,4200,0,0,40.566389,-74.221389,14
58358,58358,North Jersey Media Group Solar Facility,NJMG,NJ,Morris,PJM,RFC,217,20,4100,0,0,40.924167,-74.494722,14
58359,58359,Corning Pharmaceutical Glass,GG,NJ,Cumberland,PJM,RFC,183,9.7,2300,2,0,39.496667,-75.018611,14
58360,58360,Atlantic Coast Freezers Solar Facility,ACF,NJ,Cumberland,PJM,RFC,188,39.519935,2200,0,2,39.519935,-75.029038,14
58361,58361,Williams-Sonoma Solar Facility,WS,NJ,Middlesex,PJM,RFC,180,15,3000,0,0,40.387778,-74.455278,14
58362,58362,Quittacas Pond Solar,QPMA,MA,Plymouth,ISNE,NPCC,180,30,3500,0,0,41.781944,-70.913333,14
58364,58364,Tissington Solar,MC,NJ,Sussex,PJM,RFC,180,25,3000,0,0,41.200278,-74.491944,14
58366,58366,Atwell Island,1,CA,Tulare,CISO,WECC,180,18,20200,2,0,35.895,-119.510833,14
58370,58370,Gridley Main,GEN1,CA,Butte,CISO,WECC,0,0,1000,0,2,39.373333,-121.684167,14
58371,58371,Gridley Main Two,GEN1,CA,Butte,CISO,WECC,0,0,2500,0,2,39.373333,-121.681667,14
58373,58373,White River Solar,WRCA,CA,Tulare,CISO,WECC,0,0,20000,0,2,35.871389,-119.4625,14
58374,58374,Corcoran Solar,CSCA,CA,Kings,CISO,WECC,0,0,20000,0,2,36.138333,-119.573333,14
58376,58376,Oakley Solar Project,1,CA,Contra Costa,CISO,WECC,180,5,1500,0,0,38.001667,-121.747778,14
58381,58381,Bryan Solar Field,1,OH,Williams,PJM,RFC,180,25,2100,2,0,41.476389,-84.586111,14
58383,58383,Hyder II Hybrid,PV1,AZ,Yuma,AZPS,WECC,0,0,14000,0,2,33.027,-113.3489,14
58385,58385,Northbridge Solar,NSMA,MA,Worcester,ISNE,NPCC,180,25,1900,0,0,42.166389,-71.645556,14
58386,58386,CU Solar Plant,CU,OH,Greene,PJM,RFC,180,25,1800,0,0,39.741944,-83.816944,14
58387,58387,CES Sterling LLC,1,MA,Worcester,ISNE,NPCC,180,0,2000,0,0,42.441944,-71.722222,14
58388,58388,Solar Star 1,"AVS1,SS11,SS12,SS13,SS14,SS15,SS16",CA,Kern,CISO,WECC,0,0,318000,0,2,34.8181,-118.4036,14
58389,58389,Solar Star 2,"AVS2,SS21,SS22,SS23,SS24,SS25",CA,Kern,CISO,WECC,0,0,279000,0,2,34.848611,-118.352778,14
58391,58391,IND Community Solar Farm 1st Phase,1,IN,Marion,MISO,RFC,180,30,10000,0,0,39.695209,-86.315525,14
58398,58398,Heber Solar,1,CA,Imperial,IID,WECC,0,0,10900,0,2,32.7125,-115.540556,14
58401,58401,Volkswagen Solar System,1,TN,Hamilton,TVA,SERC,180,25,9600,0,0,35.0975,-85.126944,14
58402,58402,Solar Star New Jersey NJ LLC,1,NJ,Somerset,PJM,RFC,0,0,1500,0,2,40.401528,-74.669697,14
58403,58403,Bellingham PV,SO032,MA,Worcester,ISNE,NPCC,180,25,3000,0,0,42.075,-71.703056,14
58408,58408,Maryland Solar,MSH1,MD,Washington,PJM,RFC,180,20,27000,2,0,39.563056,-77.720278,14
58410,58410,Marshfield PV,SO032,MA,Plymouth,ISNE,NPCC,177,22,3000,0,0,42.111667,-70.709444,14
58411,58411,Orange PV,SO023,MA,Franklin,ISNE,NPCC,180,30,2000,0,0,42.585,-72.293889,14
58412,58412,Maynard PV,SO026,MA,Middlesex,ISNE,NPCC,180,30,1000,0,0,42.428333,-71.435556,14
58417,58417,Lone Valley Solar Park I LLC,CP1,CA,San Bernardino,CISO,WECC,90,50,10000,0,2,34.398059,-116.865517,14
58418,58418,Victor Dry Farm Ranch A,1,CA,San Bernardino,CISO,WECC,193,15,5000,0,0,34.501111,-117.466667,14
58419,58419,Victor Dry Farm Ranch B,1,CA,San Bernardino,CISO,WECC,193,15,5000,0,0,34.497778,-117.471111,14
58423,58423,Southbridge PV,SO022,MA,Worcester,ISNE,NPCC,180,30,3000,0,0,42.047361,-71.992868,14
58430,58430,Centinela Solar Energy,"CSE1,CSE2,CSE3,CSE4,CSE5,CSE6",CA,Imperial,CISO,WECC,90,32.686944,174799.99999999997,0,2,32.686944,-115.647778,14
58431,58431,West Tennessee Solar Farm,SNVA,TN,Haywood,TVA,SERC,180,24,4200,0,0,35.408611,-89.3875,14
58443,58443,Martin Limestone Solar Array,GEN1,PA,Lancaster,PJM,RFC,180,31,1000,0,0,40.107778,-76.061667,14
58446,58446,Arrache 4013,1,CA,Los Angeles,CISO,WECC,45,0,1500,0,2,34.650556,-118.051944,14
58447,58447,Arrache 8083,"1,2,3",CA,Los Angeles,CISO,WECC,45,0,4000,0,2,34.647778,-118.061111,14
58448,58448,Nunn,1,CA,San Bernardino,CISO,WECC,180,0,1000,0,2,34.509167,-117.154444,14
58450,58450,Vinam,1,CA,Los Angeles,CISO,WECC,45,0,1500,0,2,34.668889,-118.061389,14
58451,58451,Ma,1,CA,Los Angeles,CISO,WECC,180,0,1500,0,2,34.695278,-118.0625,14
58452,58452,Horn,1,CA,Los Angeles,CISO,WECC,45,0,1500,0,2,34.708889,-118.274167,14
58453,58453,Dixon Dairy Road Solar,1,NC,Cleveland,DUK,SERC,185,20,4000,0,0,35.199167,-81.410833,14
58462,58462,McCoy Solar Energy Project Hybrid,"1,BLK2,BLK3,BLK4,BLK5,BLK6,BLK7,BLK8",CA,Riverside,CISO,WECC,0,0,270600,2,2,33.694722,-114.739722,14
58463,58463,Herbert Farm Solar,1,MD,Charles,PJM,RFC,90,20,5500,0,0,38.545556,-76.799444,14
58467,58467,Campo Verde Solar,CVS1,CA,Imperial,CISO,WECC,180,25,147400,2,0,32.753333,-115.726389,14
58473,58473,Bruce A Henry Solar Farm,BHSF,DE,Sussex,PJM,RFC,180,20,4000,0,0,38.663992,-75.400542,14
58477,58477,Las Vegas WPCF Solar Plant,1,NV,Clark,NEVP,WECC,0,0,3300,0,2,36.134444,-115.035278,14
58479,58479,SEV NM Phase 2,NMP2,NM,Chaves,SWPP,WECC,180,25,2000,0,0,33.351111,-104.506944,14
58480,58480,Plymouth Solar LLC,1,NC,Washington,PJM,SERC,180,25,5000,0,0,35.875,-76.710556,14
58481,58481,CSU Pueblo,CSU1,CO,Pueblo,WACM,WECC,180,20,1000,0,0,38.306111,-104.58,14
58482,58482,"Azalea Solar, LLC",1,GA,Washington,SOCO,SERC,180,20,7700,0,0,32.980833,-82.591667,14
58483,58483,Tinton Falls Solar Farm,UNIT1,NJ,Monmouth,PJM,RFC,180,18,16000,0,0,40.263889,-74.084167,14
58485,58485,Upson Rocky Creek Solar Plant,PV1,GA,Upson,SOCO,SERC,180,30,1000,0,0,32.920833,-84.343056,14
58486,58486,"Picture Rocks Solar, LLC",1,AZ,Pima,TEPC,WECC,180,0,20000,0,2,32.369722,-111.242778,14
58487,58487,Granville Solar PV Power Project,1,NC,Granville,CPLE,SERC,90,36.411667,2500,0,2,36.411667,-78.593889,14
58488,58488,"Bryan Solar, LLC",1,TX,Presidio,ERCO,TRE,180,0,10000,0,2,29.6,-104.3,14
58489,58489,Apex Solar PV Power Project,1,NV,Clark,NEVP,WECC,99,36.39,20000,0,2,36.39,-114.97,14
58490,58490,Spectrum Solar PV Power Project,1,NV,Clark,NEVP,WECC,90,36.23,30200,0,2,36.23,-114.87,14
58491,58491,"Sandy Cross Solar, LLC",SANDY,NC,Nash,CPLE,SERC,180,25,1200,0,0,35.868333,-77.954167,14
58492,58492,"Ararat Rock Solar, LLC",ARARR,NC,Surry,DUK,SERC,180,25,3500,0,0,36.461111,-80.600556,14
58493,58493,"Progress Solar 1, LLC",PRO1,NC,Franklin,CPLE,SERC,180,25,4000,0,0,35.948056,-78.250833,14
58494,58494,"Progress Solar II, LLC",PROG2,NC,Robeson,CPLE,SERC,180,20,3500,0,0,34.476111,-79.0975,14
58495,58495,"Progress Solar III, LLC",PROG3,NC,Robeson,CPLE,SERC,180,20,3500,0,0,34.714167,-79.353889,14
58496,58496,Lincoln Solar,PV2,IN,Lake,MISO,RFC,180,30,1500,0,0,41.462778,-87.260278,14
58498,58498,RE Rosamond One LLC,RONE,CA,Kern,CISO,WECC,90,34.9,20000,0,2,34.9,-118.246944,14
58499,58499,RE Rosamond Two LLC,RTWO,CA,Kern,CISO,WECC,90,34.900278,20000,0,2,34.900278,-118.238333,14
58500,58500,RE Rio Grande Solar LLC,RIO,CA,Kern,CISO,WECC,90,35.00745,5000,0,2,35.00745,-118.16451,14
58501,58501,RE Gillespie 1 LLC,GILL1,AZ,Maricopa,AZPS,WECC,90,33.026389,15000,0,2,33.026389,-112.665833,14
58502,58502,RE Columbia 3 LLC,COL3,CA,Kern,CISO,WECC,90,35.024722,10000,0,2,35.024722,-118.164167,14
58504,58504,Livingston Solar Farm,LVSF,NJ,Middlesex,PJM,RFC,180,40,1200,0,0,40.523611,-74.43,14
58505,58505,Livingston Solar Canopies,LVSC,NJ,Middlesex,PJM,RFC,180,40,6600,0,0,40.5275,-74.438333,14
58506,58506,Chuckawalla Solar,0937,CA,Riverside,CISO,WECC,180,0,4000,0,2,33.568333,-114.91805600000001,14
58508,58508,Bear Creek Solar,PV3,CA,San Joaquin,CISO,WECC,180,20,1500,0,2,38.136389,-121.148889,14
58509,58509,Vintner Solar,PV4,CA,San Luis Obispo,CISO,WECC,180,20,1500,0,2,35.55795,-120.68287,14
58510,58510,Kettleman Solar Project,PV5,CA,San Joaquin,CISO,WECC,180,20,1000,0,0,38.12139,-121.14122,14
58512,58512,Cornerstone Power Vineland I LLC,PV1,NJ,Cumberland,PJM,RFC,180,0,3100,0,2,39.439722,-75.043889,14
58513,58513,Ironwood Solar LLC,0937,CA,Riverside,CISO,WECC,180,0,4000,0,2,33.565,-114.91805600000001,14
58514,58514,Desert Hot Springs Solar,DHCA,CA,Riverside,CISO,WECC,90,45,2300,0,2,33.923056,-116.53,14
58515,58515,Chattanooga Metropolitan Airport Solar,"GEN1,GEN2,GEN3",TN,Hamilton,TVA,RFC,180,15,2700,0,0,35.024583,-85.208617,14
58516,58516,Union HS at Casa Grande,PV1,AZ,Pinal,AZPS,WECC,180,12,1600,0,0,32.936944,-111.738611,14
58517,58517,Vista Grande HS at Casa Grande,PV1,AZ,Pinal,AZPS,WECC,270,2,1800,0,0,32.891389,-111.713056,14
58519,58519,Alethea I,1,NJ,Burlington,PJM,RFC,180,25,2800,0,0,40.000556,-74.735,14
58520,58520,Otero Solar,OTE1,NM,Otero,PNM,WECC,180,25,8000,2,0,32.976389,-105.971111,14
58521,58521,Manzano Solar,MAN1,NM,Valencia,PNM,WECC,180,25,8400,2,0,34.746667,-106.654444,14
58522,58522,Madera Community Hospital,1,CA,Madera,CISO,WECC,180,20,1000,0,2,36.941111,-120.046667,14
58524,58524,Neuse River Solar Farm,1,NC,Wake,DUK,SERC,180,25,1100,0,0,35.714444,-78.498889,14
58525,58525,City of Hayward WWTP,1,CA,Alameda,CISO,WECC,180,0,1600,0,2,37.633526,-122.139717,14
58527,58527,Crown Cooling Facility,1,CA,Imperial,IID,WECC,180,30,1000,0,0,32.967222,-115.5325,14
58528,58528,Garnet Solar Generation Station I LLC,WDT44,CA,Riverside,CISO,WECC,0,0,4000,0,2,33.8906,-116.5431,14
58529,58529,Progress Manis I,"P11A,P11B",NC,Scotland,CPLE,SERC,180,24,1000,0,0,34.756389,-79.447222,14
58531,58531,North Carolina Solar Bethea I,"P22A,P22B",NC,Scotland,CPLE,SERC,180,24,1000,0,0,34.704722,-79.525833,14
58534,58534,Westford Solar Park,1,MA,Middlesex,ISNE,NPCC,180,20,4000,0,0,42.636389,-71.419444,14
58535,58535,Pickering Solar,1,PA,Chester,PJM,RFC,185,10,1500,0,0,40.120556,-75.488056,14
58536,58536,Cornerstone Power Holmdel LLC,1,NJ,Monmouth,PJM,RFC,90,40.352222,3000,0,2,40.352222,-74.187778,14
58537,58537,OCI Alamo Solar I Hybrid,1,TX,Bexar,ERCO,TRE,0,0,40700,0,2,29.271667,-98.444722,14
58538,58538,PCSP3 Airport,3,NC,Person,DUK,SERC,180,25,2500,0,0,36.288056,-78.986111,14
58539,58539,Lake Pleasant WTP,1,AZ,Maricopa,AZPS,WECC,0,0,6500,0,2,33.820556,-112.24,14
58540,58540,Silver City WWTP PV Project,PV-1,NM,Grant,PNM,WECC,180,30,1000,0,0,32.713889,-108.248056,14
58541,58541,SunGen Sharon 1 LLC,1,VT,Windsor,ISNE,NPCC,185,25,1800,0,0,43.79,-72.49,14
58542,58542,"Desert Sunlight 250, LLC","DSL12,DSL13,DSL14,DSL15,DSL16,DSL17,DSL18,DSL19,DSL20",CA,Riverside,CISO,WECC,120,22.5,249700,2,0,33.8055,-115.3947,14
58543,58543,"Gilbert Solar Facility I, LLC",1,AZ,Maricopa,AZPS,WECC,0,0,2000,0,2,33.355862,-111.802355,14
58544,58544,Mountain View Solar,1,NV,Clark,NEVP,WECC,0,0,20000,0,2,36.390556,-114.964444,14
58545,58545,Community Solar 1,1,CA,Imperial,IID,WECC,180,32.982778,5700,0,2,32.982778,-115.481944,14
58547,58547,SMPA Solar 1 Community Solar,1,CO,Montrose,PSCO,WECC,180,35,1000,0,0,38.2725,-108.785556,14
58550,58550,Owens Corning at Bethlehem,PV1,NY,Albany,NYIS,NPCC,180,25,2000,0,0,42.586944,-73.865,14
58552,58552,"Indy Solar I, LLC",1,IN,Marion,MISO,RFC,180,20,10000,0,0,39.662778,-85.985556,14
58553,58553,"Indy Solar III, LLC",1,IN,Marion,MISO,RFC,180,20,8600,0,0,39.659444,-86.259722,14
58554,58554,"Somers Solar Center, LLC",1,CT,Tolland,ISNE,NPCC,180,38,5000,0,2,41.955,-72.445833,14
58556,58556,"Indy Solar II, LLC",1,IN,Marion,MISO,RFC,180,20,10100,0,0,39.662778,-85.985556,14
58561,58561,Merrimac Solar,MSMA,MA,Essex,ISNE,NPCC,180,25,1500,0,0,42.833056,-70.991944,14
58564,58564,Frenchtown III Solar,F3NJ,NJ,Hunterdon,PJM,NPCC,180,25,7900,0,0,40.4825,-75.018056,14
58568,58568,Cottage Street Solar Facility,PV-3,MA,Hampden,ISNE,NPCC,180,20,3200,0,0,42.145278,-72.538333,14
58569,58569,Paradise Solar Energy Center,1,NJ,Gloucester,PJM,RFC,180,25,5000,0,0,39.835833,-75.2225,14
58572,58572,Lakeland Solar Energy LLC,"1,2",GA,Lanier,SOCO,SERC,180,25,1800,0,0,31.026944,-83.055,14
58576,58576,GSE NM1,NMP1,NM,Chaves,SWPP,WECC,180,25,2300,0,0,33.3,-104.4,14
58578,58578,Sonora 1,SON1,CA,Tuolumne,CISO,WECC,0,0,1500,0,2,37.889753,-120.528723,14
58581,58581,Oltmans SCE at Champagne,1,CA,San Bernardino,CISO,WECC,180,10,1000,0,0,34.043889,-117.531111,14
58582,58582,Oltmans SCE at Jurupa,1,CA,San Bernardino,CISO,WECC,180,10,1500,0,0,34.05,-117.596111,14
58583,58583,Forbes Street Solar,FSS1,RI,Providence,ISNE,NPCC,180,20,3000,0,0,41.773056,-71.338889,14
58584,58584,Princeton University Cogeneration,PV1,NJ,Mercer,PJM,RFC,90,40.341389,4500,0,2,40.341389,-74.657222,14
58585,58585,Sierra Nevada Brewing Co Hybrid,SOLR,CA,Butte,CISO,WECC,180,5,1700,0,0,39.724167,-121.815278,14
58586,58586,Town of East Bridgewater CSG,1,MA,Plymouth,ISNE,NPCC,180,20,2000,0,2,42.051111,-70.955833,14
58588,58588,Sue Cleveland High School,SCHS,NM,Sandoval,PNM,WECC,180,20,1000,0,0,35.313333,-106.657778,14
58589,58589,Rio Rancho High School,RRHS,NM,Sandoval,PNM,WECC,180,20,1000,0,0,35.264444,-106.667778,14
58590,58590,Cascade Solar,1,CA,San Bernardino,CISO,WECC,90,34.157222,18500,0,2,34.157222,-116.234444,14
58592,58592,Solar Gen 2 Solar Facility,"ALHM,ARK,SONR",CA,Imperial,CISO,WECC,90,33.08,163200,2,2,33.08,-115.47,14
58598,58598,Beryl Solar Plant,BSP1,UT,Iron,PACE,WECC,180,30,3000,0,0,37.639167,-113.645833,14
58599,58599,Cedar Valley Solar Plant,CVSP1,UT,Iron,PACE,WECC,180,30,3000,0,0,37.807778,-113.09,14
58600,58600,Buckhorn Solar Plant,BSP1,UT,Iron,PACE,WECC,180,30,3000,0,0,38.023333,-112.731667,14
58601,58601,Milford Flat Solar Plant,MFSP1,UT,Beaver,PACE,WECC,180,30,3000,0,0,38.291389,-113.008333,14
58602,58602,Laho Solar Plant,LSP1,UT,Beaver,PACE,WECC,180,30,3000,0,0,38.291389,-113.035556,14
58603,58603,Greenville Solar Plant,GVSP1,UT,Beaver,PACE,WECC,180,30,2200,0,0,38.256111,-112.735833,14
58604,58604,Granite Peak Solar Plant,GPSP1,UT,Beaver,PACE,WECC,180,30,3000,0,0,38.402778,-112.988889,14
58605,58605,Blueberry One,PV1,NC,Wayne,DUK,SERC,180,20,5000,0,0,35.313889,-78.154167,14
58609,58609,Industry Solar Power Generation Station 1 LLC,ISP1,CA,San Bernardino,CISO,WECC,90,34.553056,1500,0,2,34.553056,-117.456944,14
58610,58610,Navajo Solar Power Generation Station 1 LLC,NSP1,CA,San Bernardino,CISO,WECC,90,34.551111,1500,0,2,34.551111,-117.191111,14
58611,58611,Powhatan Solar Power Generation Station 1 LLC,1,CA,San Bernardino,CISO,WECC,90,34.496944,1500,0,2,34.496944,-117.145,14
58612,58612,Otoe Solar Power Generation Station 1 LLC,1,CA,San Bernardino,CISO,WECC,198,20,1500,0,0,34.545,-117.191944,14
58615,58615,Indianapolis Motor Speedway Solar PV,IMS,IN,Marion,MISO,RFC,270,26,9000,0,0,39.79,-86.233611,14
58616,58616,Westlands Solar PV Farm,WSF1,CA,Fresno,CISO,WECC,180,36.138056,18000,0,2,36.138056,-120.075833,14
58618,58618,Butler Plaza,1,FL,Alachua,GVL,SERC,147,5,1200,0,0,29.623056,-82.38,14
58621,58621,Sol Orchard El Centro PV,ECPV,CA,Imperial,IID,WECC,0,0,20000,0,2,32.803333,-115.546389,14
58623,58623,Holstein Plant,PV1,NC,Scotland,CPLE,SERC,180,20,20000,2,0,34.774167,-79.340833,14
58624,58624,Berkshire 1,BER1,MA,Berkshire,ISNE,NPCC,178,30,1800,0,0,42.114444,-73.405278,14
58625,58625,Santa Rita Jail Hybrid,"SRPV2,SRPV3",CA,Alameda,CISO,WECC,180,11,1500,0,0,37.719167,-121.886944,14
58626,58626,Western Antelope Blue Sky Ranch A,WABSA,CA,Los Angeles,CISO,WECC,90,34.681667,20000,0,2,34.681667,-118.324722,14
58627,58627,Western Antelope Dry Ranch,WADR,CA,Los Angeles,CISO,WECC,90,34.688889,10000,2,2,34.688889,-118.320278,14
58628,58628,Simon Solar Farm LLC,SRSSF,GA,Walton,SOCO,SERC,180,20,30000,0,0,33.678056,-83.675833,14
58631,58631,Queen Anne's County,1,MD,Queen Annes,PJM,RFC,180,30,2000,0,2,39.031667,-76.016389,14
58632,58632,Actus Lend Lease DMAFB,1,AZ,Pima,TEPC,WECC,180,0,3000,0,2,32.1825,-110.863333,14
58633,58633,Monterey Regional Water Pollution Control Agency,1,CA,Monterey,CISO,WECC,195,26,1000,0,2,36.721111,-121.787778,14
58634,58634,Lancaster Baptist Church,1,CA,Los Angeles,CISO,WECC,180,20,1000,0,2,34.695833,-118.058889,14
58636,58636,Sacramento Fairbain Water Treatment Plant,1,CA,Sacramento,BANC,WECC,180,10,1000,0,2,38.554802,-121.416791,14
58642,58642,Tulare 1 and 2,"1,2",CA,Tulare,CISO,WECC,180,20,3000,0,0,36.2,-119.42,14
58643,58643,Rockford Solar Farm,1,IL,Winnebago,PJM,RFC,180,30,2600,0,0,42.175278,-89.088333,14
58644,58644,Silver State Solar Power South,"BLK1,BLK2,BLK3,BLK4,BLK5,BLK6,BLK7,BLK8",NV,Clark,CISO,WECC,0,0,260099.99999999997,2,2,35.63,-115.32,14
58646,58646,Stateline Solar,"STL,STL2,STL3,STL4,STL5,STL6,STL7",CA,San Bernardino,CISO,WECC,180,25,299500,2,0,35.6,-115.4,14
58647,58647,Port Richmond WWT Solar,1,NY,Richmond,NYIS,NPCC,180,20,1000,0,0,40.638056,-74.126111,14
58649,58649,Montgomery Solar LLC,1,NC,Montgomery,DUK,SERC,180,20,20000,0,0,35.344444,-79.768333,14
58650,58650,North Brookfield,PV1,MA,Worcester,ISNE,NPCC,180,25,3000,0,0,42.278056,-72.053056,14
58653,58653,Jersey Gardens Phase 1,1,NJ,Union,PJM,RFC,26.7,5,1700,0,0,40.660833,-74.173333,14
58654,58654,Jersey Gardens Phase 2,1,NJ,Union,PJM,RFC,26.7,5,2300,0,0,40.660833,-74.173333,14
58660,58660,Utah Red Hills Renewable Energy Park,1,UT,Iron,PACE,WECC,0,0,80000,0,2,37.882778,-112.904167,14
58665,58665,"Celina Solar Project #1, LLC",CSP1,OH,Mercer,PJM,RFC,180,25,4000,0,0,40.540556,-84.590556,14
58667,58667,Biscoe Solar LLC,BISCO,NC,Montgomery,DUK,SERC,180,20,5000,0,0,35.383889,-79.770278,14
58668,58668,Rockwell Solar LLC,ROCKW,NC,Rowan,DUK,SERC,180,20,3500,0,0,35.541667,-80.474722,14
58669,58669,Selma Solar LLC,SELMA,NC,Johnston,DUK,SERC,180,20,5000,0,0,35.576389,-78.183333,14
58670,58670,Turkey Branch Solar LLC,TURKY,NC,Robeson,DUK,SERC,180,20,5000,0,0,34.524444,-79.104444,14
58673,58673,Gates Solar LLC,GATES,NC,Gates,PJM,SERC,270,36.450833,5000,0,2,36.450833,-76.803611,14
58674,58674,Cirrus Solar LLC,CIRRU,NC,Franklin,DUK,SERC,180,20,5000,0,0,35.969444,-78.265,14
58675,58675,Chocowinity Solar LLC,CHOCO,NC,Beaufort,DUK,SERC,180,20,5000,0,0,35.515,-77.09,14
58680,58680,Braley Road 2,PV1,MA,Bristol,ISNE,NPCC,180,25,2600,0,0,41.751667,-70.966944,14
58682,58682,Dartmouth,PV1,MA,Bristol,ISNE,NPCC,180,25,6300,0,0,41.676111,-70.996944,14
58689,58689,Blue Sky One,1,NM,Taos,PNM,WECC,0,0,1300,0,2,36.907778,-105.985278,14
58698,58698,Mira Loma,"D960,D9611,D9612",CA,Riverside,CISO,WECC,180,9,3000,0,0,34.013056,-117.5375,14
58700,58700,Colleton Solar Farm,CS300,SC,Colleton,SC,SERC,180,25,2500,0,0,32.913333,-80.6925,14
58701,58701,Apple Data Center - PV2,PV2,NC,Catawba,DUK,SERC,90,35.738889,20000,0,2,35.738889,-81.207778,14
58702,58702,Axio Green LLC,1,MA,Franklin,ISNE,NPCC,180,20,2000,0,0,42.576111,-72.61,14
58703,58703,Lenape II,1,IN,Marion,MISO,RFC,180,10,4000,0,0,39.776667,-86.042778,14
58708,58708,Phoenix Airport East Economy Lot,PAEEL,AZ,Maricopa,AZPS,WECC,0,0,1100,0,0,33.4345,-111.9842,14
58709,58709,Phoenix Airport Rental Car Center,PARCC,AZ,Maricopa,AZPS,WECC,90,5,1600,0,0,33.43042,-112.04484,14
58710,58710,Barilla Solar,BRLA,TX,Pecos,ERCO,TRE,180,20,30200,2,0,30.96,-103.35,14
58711,58711,Lost Hills/Blackwell,"BLKW,LTHL",CA,Kern,CISO,WECC,90,35.62,32000,2,2,35.62,-119.85,14
58713,58713,North Star Solar,NSTR,CA,Fresno,CISO,WECC,90,36.73,61600,2,2,36.73,-120.41,14
58716,58716,"OCI Alamo 2, LLC",1,TX,Bexar,ERCO,TRE,180,29.469444,4400,0,4,29.469444,-98.331944,14
58717,58717,"OCI Alamo 4, LLC",1,TX,Kinney,ERCO,TRE,180,29.328889,39600,0,4,29.328889,-100.383889,14
58718,58718,Orion Solar I,PV1,CA,Kern,CISO,WECC,90,35.150694,12000,0,2,35.150694,-118.875,14
58721,58721,Orion Solar II,ORION,CA,Kern,CISO,WECC,90,35.150694,8000,0,2,35.150694,-118.875278,14
58722,58722,Charlotte Solar,PV1,NC,Rutherford,DUK,SERC,180,20,5000,0,0,35.261944,-81.821667,14
58725,58725,Elliana Solar,PV1,NC,Alamance,DUK,SERC,180,20,5000,0,0,36.131111,-79.3325,14
58726,58726,Flash Solar,PV1,NC,Catawba,DUK,SERC,180,20,5000,0,0,35.758056,-81.229444,14
58730,58730,Amethyst Solar,PV1,NC,Rutherford,DUK,SERC,180,25,3000,0,0,35.316944,-81.926389,14
58731,58731,Angel Solar,PV1,NC,Catawba,DUK,SERC,180,20,5000,0,0,35.651111,-81.208611,14
58732,58732,Audrey Solar,PV1,NC,Cleveland,DUK,SERC,180,25,3000,0,0,35.328056,-81.621944,14
58735,58735,Buddy Solar,PV1,NC,Rowan,DUK,SERC,180,20,4000,0,0,35.541944,-80.363333,14
58739,58739,Milo Solar,PV1,NC,Alamance,DUK,SERC,180,25,3000,0,0,36.148889,-79.348889,14
58740,58740,Minnie Solar,PV1,NC,Alamance,DUK,SERC,180,25,3000,0,0,35.948056,-79.361944,14
58741,58741,Nick Solar,NICK,NC,Guilford,CPLE,SERC,180,20,5000,0,0,35.991111,-79.548056,14
58742,58742,Owen Solar,PV1,NC,Catawba,DUK,SERC,180,25,5000,0,0,35.586111,-81.315278,14
58745,58745,Sophie Solar,PV1,NC,Cleveland,DUK,SERC,180,25,4500,0,0,35.305,-81.696944,14
58746,58746,Star Solar,PV1,NC,Durham,DUK,SERC,180,25,5000,0,0,36.08,-78.823889,14
58748,58748,North Bay Solar 1,NBWT,CA,Solano,CISO,WECC,90,38.300556,1000,0,2,38.300556,-121.966389,14
58749,58749,Tihonet Solar,TSMA,MA,Plymouth,ISNE,NPCC,180,30,1000,0,0,41.7875,-70.723333,14
58750,58750,Lancaster Dry Farm Ranch B,LDFRB,CA,Los Angeles,CISO,WECC,90,34.716944,5000,0,2,34.716944,-118.289444,14
58751,58751,Rodeo Solar C2,RSC2,CA,Los Angeles,CISO,WECC,193,25,1500,0,0,34.713333,-118.289444,14
58752,58752,Rodeo Solar D2,RSD2,CA,Los Angeles,CISO,WECC,193,25,1500,0,0,34.713333,-118.289444,14
58753,58753,Summer Solar A2,SSA2,CA,Los Angeles,CISO,WECC,193,25,1500,0,0,34.723056,-118.289722,14
58754,58754,Summer Solar B2,SSB2,CA,Los Angeles,CISO,WECC,193,25,1500,0,0,34.723056,-118.289722,14
58755,58755,Summer Solar C2,SSC2,CA,Los Angeles,CISO,WECC,193,25,1500,0,0,34.723056,-118.289722,14
58756,58756,Summer Solar D2,SSD2,CA,Los Angeles,CISO,WECC,193,25,1000,0,0,34.723056,-118.289722,14
58757,58757,Summer North Solar,"UE2,UF2,UG2,UH2",CA,Los Angeles,CISO,WECC,193,25,6500,0,0,34.723056,-118.289722,14
58761,58761,Expressway Solar A,EXSA,CA,San Bernardino,CISO,WECC,193,25,2000,0,0,34.582222,-117.341667,14
58762,58762,Expressway Solar B,EXSB,CA,San Bernardino,CISO,WECC,193,25,2000,0,0,34.583333,-117.340278,14
58763,58763,Expressway Solar C2,EXSC2,CA,San Bernardino,CISO,WECC,193,25,1500,0,0,34.584444,-117.341389,14
58770,58770,Maywood Photovoltaic Project,1,IN,Marion,MISO,RFC,180,20,8000,0,0,39.743889,-86.218056,14
58782,58782,Sonne One,PV1,NC,Wayne,DUK,SERC,180,20,5000,0,0,35.437222,-77.833611,14
58785,58785,Brentwood Solar,BRT1,NY,Suffolk,NYIS,NPCC,164,6,1000,0,0,40.781389,-73.243889,14
58786,58786,Deer Park,DRP1,NY,Suffolk,NYIS,NPCC,252,6,2500,0,0,40.760833,-73.193889,14
58787,58787,Dennison,DNN1,NY,Suffolk,NYIS,NPCC,90,6,2000,0,0,40.763056,-73.323611,14
58788,58788,North County,NRT1,NY,Suffolk,NYIS,NPCC,100,10,1000,0,0,40.763056,-73.323611,14
58789,58789,Riverhead,RVH1,NY,Suffolk,NYIS,NPCC,127,10,1500,0,0,40.826111,-73.232222,14
58791,58791,Kirkwall Holdings,PV1,NC,Duplin,DUK,SERC,180,20,5000,0,0,34.988889,-78.1375,14
58792,58792,Ayrshire,PV1,NC,Cleveland,DUK,SERC,180,20,19400,0,0,35.283056,-81.615278,14
58793,58793,JMB Mcguire-Dix-Lakehurst Solar Project,UCIV,NJ,Burlington,PJM,NPCC,200,27,11400,0,0,39.992818,-74.636933,14
58794,58794,Storrie Lake Solar Project,MSMPV,NM,San Miguel,PNM,WECC,180,25,1900,0,0,35.656944,-105.183889,14
58795,58795,"Hobart Solar, LLC",HS,IN,Lake,MISO,RFC,180,30,1000,0,0,41.529444,-87.308333,14
58796,58796,"Waterloo Solar, LLC",WS,IN,DeKalb,MISO,RFC,180,30,1000,0,0,41.433889,-85.043889,14
58797,58797,"Valparaiso Solar, LLC",VS,IN,Porter,MISO,RFC,180,39,1000,0,0,41.502222,-87.161111,14
58798,58798,"AC Criminal Courts Complex SPE2, LLC",ACCCC,NJ,Atlantic,PJM,RFC,90,39.4375,1300,0,2,39.4375,-74.690556,14
58799,58799,Pamlico Partners Solar,1,NC,Beaufort,CPLE,SERC,180,25,5000,0,0,35.501111,-76.87,14
58801,58801,"Arba Solar, LLC","INV1,INV2,INV3,INV4",NC,Greene,DUK,SERC,180,25,2000,0,0,35.396389,-77.703611,14
58802,58802,"Franklin Solar, LLC","INV1,INV2,INV3,INV4",NC,Franklin,CPLE,SERC,180,25,2000,0,0,36.0975,-78.167778,14
58803,58803,"Kenansville Solar 2, LLC",INV1,NC,Duplin,DUK,SERC,180,20,2000,0,0,34.957778,-77.981667,14
58805,58805,"Samarcand Solar Farm, LLC","INV1,INV10,INV2,INV3,INV4,INV5,INV6,INV7,INV8,INV9",NC,Moore,DUK,SERC,180,20,5000,0,0,35.311667,-79.695,14
58806,58806,Albemarle Solar Center LLC,ASC1,NC,Lenoir,CPLE,SERC,180,25,5000,0,0,35.293056,-77.556944,14
58807,58807,Boseman Solar Center LLC,BSC1,NC,Nash,CPLE,SERC,180,20,5000,0,0,36.008056,-77.81,14
58808,58808,Flemming Solar Center LLC,FSC1,NC,Pitt,CPLE,SERC,180,20,5000,0,0,35.668889,-77.383889,14
58809,58809,Littlefield Solar Center LLC,LSC1,NC,Pitt,CPLE,SERC,180,25,5000,0,0,35.433889,-77.438056,14
58810,58810,Rams Horn Solar Center LLC,RHSC1,NC,Pitt,CPLE,SERC,180,20,5000,0,0,35.64,-77.316111,14
58812,58812,Upchurch Solar Center LLC,USC1,NC,Wilson,CPLE,SERC,180,20,5000,0,0,35.781944,-77.883889,14
58814,58814,Shasta Solar Farm,"GENA,GENB",CA,Shasta,CISO,WECC,90,41.031389,3000,0,2,41.031389,-121.4225,14
58822,58822,Millville City Sewer Auth WTP,"U1BB,U2DB",NJ,Cumberland,PJM,RFC,180,20,1300,0,0,39.376389,-75.033056,14
58824,58824,Sheldon Solar,I402,VT,Franklin,ISNE,NPCC,180,30,2300,0,0,44.910556,-72.979444,14
58828,58828,Apple One,PV1,NC,Catawba,DUK,SERC,180,20,5000,0,0,35.629444,-81.156944,14
58829,58829,Sonne Two,PV1,NC,Catawba,DUK,SERC,180,20,5000,0,0,35.656667,-81.183611,14
58831,58831,Redcrest Solar Farm,PV-1,CA,Kern,CISO,WECC,90,35.321944,16600,2,2,35.321944,-118.812778,14
58832,58832,Cogenra - TEP,CTEP,AZ,Pima,TEPC,WECC,180,0,1000,0,2,32.101944,-110.813333,14
58833,58833,Red Horse 2,RH2S,AZ,Cochise,TEPC,WECC,90,32.286111,51000,0,2,32.286111,-110.088056,14
58839,58839,Sudbury Landfill,"INV1,INV2,INV3",MA,Middlesex,ISNE,NPCC,180,25,1300,0,0,42.363889,-71.385,14
58840,58840,"Kenansville Solar Farm, LLC","INV1,INV2,INV3,INV4,INV5,INV6,INV7,INV8,INV9",NC,Duplin,DUK,SERC,180,20,4500,0,0,34.97,-77.976111,14
58842,58842,"Gato Montes Solar, LLC",1,AZ,Pima,TEPC,WECC,180,20,5000,2,0,32.102778,-110.819722,14
58843,58843,"Bethel Price Solar, LLC",1,NC,Pitt,PJM,SERC,180,35.794722,5000,0,2,35.794722,-77.381111,14
58844,58844,"Dogwood Solar, LLC",1,NC,Halifax,PJM,SERC,180,36.125,20000,0,2,36.125,-77.409167,14
58845,58845,Washington Airport Solar LLC,1,NC,Beaufort,CPLE,SERC,180,25,5000,0,0,35.565278,-77.053611,14
58846,58846,"Washington Millfield Solar, LLC",1,NC,Beaufort,CPLE,SERC,180,25,5000,0,0,35.499444,-76.833611,14
58847,58847,"Windsor Cooper HIill Solar, LLC",1,NC,Bertie,PJM,SERC,180,35.981944,5000,0,2,35.981944,-76.917778,14
58848,58848,Warsaw Farm,1,NC,Duplin,CPLE,SERC,180,20,65000,2,0,35.005556,-78.125833,14
58849,58849,Castalia Solar,1,NC,Nash,CPLE,SERC,180,20,2000,0,0,36,-77.783333,14
58851,58851,Oakboro Farm,1,NC,Scotland,DUK,SERC,180,25,5000,0,0,34.795833,-79.538333,14
58853,58853,McKenzie Farm,1,NC,Columbus,CPLE,SERC,180,20,5000,0,0,34.323889,-78.691944,14
58854,58854,Nash 58 Farm,1,NC,Nash,CPLE,SERC,180,25,5000,0,0,36.047222,-78.030833,14
58855,58855,Nash 64 Farm,1,NC,Nash,CPLE,SERC,180,20,5000,0,0,35.949444,-78.0925,14
58856,58856,Pate Farm,1,NC,Robeson,CPLE,SERC,180,25,5000,0,0,34.816667,-79.199444,14
58859,58859,Erwin Farm,1,NC,Harnett,CPLE,SERC,180,20,5000,0,0,35.333333,-78.661389,14
58861,58861,Sigmon Catawba Farm,1,NC,Catawba,DUK,SERC,180,20,5000,0,0,35.612222,-81.243333,14
58862,58862,Wagstaff Farm 1,1,NC,Person,CPLE,SERC,180,25,5000,0,0,36.458658,-78.956739,14
58863,58863,Waco Farm,1,NC,Cleveland,DUK,SERC,180,20,5000,0,0,35.352222,-81.426111,14
58864,58864,Sunfish Farm,1,NC,Wake,CPLE,SERC,180,20,5000,0,0,35.558056,-78.735833,14
58866,58866,Garrell Solar Farm,1,NC,Columbus,CPLE,SERC,180,25,5000,0,0,34.325278,-78.793056000000007,14
58867,58867,Angier Farm,1,NC,Harnett,CPLE,SERC,180,20,5000,0,0,35.516389,-78.75,14
58868,58868,Bladenboro Farm,1,NC,Bladen,CPLE,SERC,186,25,5000,0,0,34.535,-78.813056,14
58871,58871,Berkley East Solar LLC,1,MA,Bristol,ISNE,NPCC,0,0,3000,0,0,41.823889,-71.041389,14
58874,58874,Dement Farm LLC,DF1,NC,Vance,CPLE,SERC,180,20,5000,0,0,36.27,-78.348333,14
58876,58876,Fusion Solar Center LLC,PV,CT,New London,ISNE,NPCC,0,25,20000,0,2,41.623889,-72.043056000000007,14
58877,58877,Kinsley Landfill Solar,KINS,NJ,Gloucester,PJM,RFC,180,10,8600,0,0,39.793333,-75.106389,14
58879,58879,Duplin Solar LLC,DF,NC,Duplin,DUK,SERC,180,25,5000,0,0,35.011944,-78.078333,14
58880,58880,North Carolina Solar III LLC,NCIII,NC,Scotland,DUK,SERC,180,25,4900,0,0,34.766667,-79.559722,14
58881,58881,County College of Morris,PV01,NJ,Morris,PJM,RFC,185,10,2900,0,0,40.856667,-74.581389,14
58882,58882,Mercer County Community College,PV01,NJ,Mercer,PJM,RFC,180,30,7500,0,0,40.255833,-74.645278,14
58889,58889,ASTI,ASTI,CA,Sonoma,CISO,WECC,24,5,1000,0,0,38.761389,-122.975278,14
58890,58890,Beringer,BERI,CA,Sonoma,CISO,WECC,26,5,1200,0,0,38.510833,-122.479722,14
58892,58892,Camilla Solar Plant,CMLA,GA,Mitchell,SOCO,SERC,180,30,16000,0,0,31.183889,-84.131944,14
58893,58893,Camp Solar Plant,CAMP,GA,Meriwether,SOCO,SERC,180,30,2400,0,0,32.964722,-84.543889,14
58896,58896,Patriots Stadium,PV01,NJ,Somerset,PJM,RFC,197,10,1000,0,0,40.560556,-74.551389,14
58899,58899,Prosperity Energy Storage Facility Hybrid,GEN-1,NM,Bernalillo,PNM,WECC,180,25,500,0,0,35.001944,-106.637222,14
58906,58906,Valley Center 1,VC1,CA,San Diego,CISO,WECC,0,45,2500,0,2,33.234167,-117.001667,14
58907,58907,Valley Center 2,VC2,CA,San Diego,CISO,WECC,0,45,5000,0,2,33.234167,-117.001667,14
58909,58909,Ramona 1,RAM1,CA,San Diego,CISO,WECC,0,45,2000,0,2,33.012222,-116.875,14
58911,58911,Ramona 2,RAM2,CA,San Diego,CISO,WECC,0,45,5000,0,2,33.012222,-116.875,14
58912,58912,Santa Fe Springs Rooftop Solar BLDG M,1,CA,Los Angeles,CISO,WECC,180,10,1800,0,0,33.910833,-118.044444,14
58913,58913,Santa Fe Springs Rooftop Solar BLDG H,1,CA,Los Angeles,CISO,WECC,180,10,1500,0,2,33.910833,-118.044444,14
58915,58915,Copper Mountain Solar 3,"1,10,2,3,4,5,6,7,8,9",NV,Clark,LDWP,WECC,180,16,255000,0,0,35.889419,-114.957912,14
58917,58917,Tioga Solar Morris County 1 LLC,MMIR,NJ,Morris,PJM,RFC,180,15,1000,0,0,40.815278,-74.475833,14
58918,58918,2081 Terzian Solar Project,2081,CA,Fresno,CISO,WECC,180,36.67,1200,0,4,36.67,-119.415833,14
58919,58919,2127 Harris Solar Project,2127,CA,Butte,CISO,WECC,90,39.291667,1300,0,2,39.291667,-121.669722,14
58920,58920,2097 Helton Solar Project,2097,CA,Merced,CISO,WECC,90,37.352222,1500,0,2,37.352222,-120.506944,14
58934,58934,"Integrys MA Solar, LLC - Ashburnham Site","ASH-R,ASH10",MA,Worcester,ISNE,NPCC,180,10,2900,0,0,42.599444,-71.941944,14
58935,58935,Open View Solar Farm,PV,VT,Addison,ISNE,NPCC,180,25,2000,0,0,44.139444,-73.203889,14
58936,58936,Walpole Solar 2,WLPL1,MA,Norfolk,ISNE,NPCC,180,25,2400,0,0,42.117222,-71.265833,14
58937,58937,Gardner Solar 1,GRDN1,MA,Worcester,ISNE,NPCC,180,25,2000,0,0,42.586389,-72.030833,14
58942,58942,Rockville Solar I LLC,RVSI,IN,Marion,MISO,RFC,180,25,2800,0,0,39.763056,-86.301111,14
58943,58943,Halifax,1,NC,Halifax,PJM,SERC,180,20,20000,0,0,36.441944,-77.711389,14
58949,58949,Cloverdale Solar I,TBD,CA,Sonoma,CISO,WECC,180,25,1500,0,0,38.773056,-123.017778,14
58951,58951,Delilah Road Landfill,DRLS,NJ,Atlantic,PJM,RFC,180,15,8500,0,0,39.416111,-74.543889,14
58952,58952,Dessie Solar Center LLC,DESS,NC,Columbus,CPLE,SERC,180,22,4800,0,0,34.302778000000004,-78.835833,14
58953,58953,"Rockville Solar II, LLC",RVSII,IN,Marion,MISO,RFC,180,10,2700,0,0,39.766944,-86.3,14
58954,58954,Intel Folsom Phase 2,PV,CA,Sacramento,BANC,WECC,272,5,1000,0,2,38.643611,-121.163889,14
58955,58955,BearPond Solar Center LLC,BEAR,NC,Vance,CPLE,SERC,180,22,4800,0,0,36.276111,-78.377222,14
58956,58956,Shankle Solar Center LLC,SHAN,NC,Hoke,CPLE,SERC,180,22,4800,0,0,34.943889,-79.195833,14
58957,58957,Graham Solar Center LLC,GRAH,NC,Columbus,CPLE,SERC,180,22,4800,0,0,34.309722,-79.014444,14
58959,58959,Butler Solar Power Project,BSF1,MO,Bates,SWPP,MRO,180,32,2800,0,0,38.27,-94.35,14
58961,58961,Oregon University System OIT Klamath Falls,PV,OR,Klamath,PACW,WECC,220,35,2000,0,0,42.254167,-121.785,14
58963,58963,Las Virgenes Municipal Water District,PV,CA,Los Angeles,CISO,WECC,117,0,1000,0,2,34.136111,-118.701944,14
58964,58964,Technology Drive Solar,PV1,VT,Windham,ISNE,NPCC,180,15,2000,0,2,42.876111,-72.565833,14
58973,58973,White River Solar 2,W2CA,CA,Tulare,CISO,WECC,0,0,19800,0,2,35.874722,-119.046111,14
58974,58974,Fairview Farms Solar,PV1,MA,Franklin,ISNE,NPCC,180,25,2000,0,0,42.459722,-72.610278,14
58975,58975,Henrietta Solar Project,PV1,CA,Kings,CISO,WECC,90,36.218806,102000,0,2,36.218806,-119.805833,14
58983,58983,RE Camelot LLC,1,CA,Kern,CISO,WECC,180,60,45000,0,2,35.026667,-118.185556,14
58984,58984,"RE Adams East, LLC",1,CA,Fresno,CISO,WECC,180,45,19000,2,2,36.6175,-120.290833,14
58985,58985,"RE Kansas Solar, LLC",1,CA,Kings,CISO,WECC,180,45,20000,2,2,36.247778,-119.833889,14
58986,58986,"RE Old River One, LLC",1,CA,Kern,CISO,WECC,180,45,20000,2,2,35.223333,-119.088889,14
58990,58990,"RE Columbia Two, LLC",1,CA,Kern,CISO,WECC,180,60,15000,0,2,35.026667,-118.185556,14
58991,58991,"RE Kent South, LLC",1,CA,Kings,CISO,WECC,180,45,20000,2,2,36.226111,-119.905278,14
59001,59001,Parkland Landfill Solar,PARK,NJ,Burlington,PJM,RFC,180,15,7800,0,0,40.1275,-74.710833,14
59008,59008,Woodmere Solar Farm,PV1,CA,Kern,CISO,WECC,90,35.323056,15000,2,2,35.323056,-118.821389,14
59009,59009,Hayworth Solar,PV1,CA,Kern,CISO,WECC,90,35.325278,27000,2,2,35.325278,-118.878611,14
59010,59010,Macho Springs,MSS1,NM,Luna,EPE,WECC,90,32.57,55000,2,2,32.57,-107.48,14
59013,59013,Scituate PV,SCT,MA,Plymouth,ISNE,NPCC,180,25,2500,0,0,42.1775,-70.740556,14
59014,59014,Bolton PV,BLT,MA,Worcester,ISNE,NPCC,180,25,4900,0,0,42.449722,-71.643056,14
59015,59015,Stow PV,STW,MA,Middlesex,ISNE,NPCC,180,25,2000,0,0,42.436944,-71.506111,14
59017,59017,Carol Jean Solar,GEN 1,NC,Stokes,DUK,SERC,180,20,4000,0,0,36.316111,-80.144444,14
59018,59018,East Chicago,1,IN,Lake,MISO,RFC,180,25,2000,0,0,41.632222,-87.469167,14
59019,59019,Griffith,1,IN,Lake,MISO,RFC,180,25,2000,0,0,41.521389,-87.436111,14
59020,59020,Gila Bend Hybrid,PV1,AZ,Maricopa,AZPS,WECC,0,0,32000,0,2,32.940833,-112.881389,14
59026,59026,Back River Waste Water Treatment,SOLAR,MD,Baltimore City,PJM,RFC,180,20,800,0,2,39.299722,-76.494167,14
59028,59028,Agawam Solar,0028,MA,Hampden,ISNE,NPCC,180,32,1500,0,0,42.081944,-72.614444,14
59029,59029,Rehoboth Solar,0040,MA,Bristol,ISNE,NPCC,180,25,2000,0,0,41.901667,-71.2425,14
59030,59030,Chicopee Solar,0036,MA,Hampden,ISNE,NPCC,180,25,3000,0,0,42.185556,-72.5825,14
59031,59031,Route 57 Solar,0027,MA,Hampden,ISNE,NPCC,180,32,1500,0,0,42.058889,-72.664167,14
59032,59032,EBZ Solar,0031,MA,Middlesex,ISNE,NPCC,180,32,2500,0,0,42.570556,-71.625,14
59033,59033,Whately Solar,0024,MA,Franklin,ISNE,NPCC,180,32,1500,0,0,42.446111,-72.623611,14
59038,59038,Battleground,GEN1,NC,Cleveland,DUK,SERC,180,20,3500,0,0,35.22,-81.33,14
59039,59039,Beulaville,GEN 1,NC,Duplin,DUK,SERC,180,20,2000,0,0,34.9,-77.78,14
59042,59042,Ellerbe,GEN 1,NC,Richmond,DUK,SERC,180,20,2000,0,0,35.1,-79.73,14
59043,59043,West Davisville Solar,PV1,RI,Washington,ISNE,NPCC,200,27,2000,0,0,41.603611,-71.477222,14
59044,59044,Rio Rico Solar,RRSF,AZ,Santa Cruz,TEPC,WECC,180,25,6000,0,0,31.5,-111.008056,14
59046,59046,651 Chase Solar NG,PV1,MA,Worcester,ISNE,NPCC,180,25,2500,0,0,42.626667,-71.742778,14
59049,59049,Whitcomb Solar Farm,PS01,VT,Chittenden,ISNE,NPCC,180,20,2200,0,0,44.485556,-73.136944,14
59050,59050,Wallace,GEN 1,NC,Duplin,DUK,SERC,180,20,2000,0,0,34.75813,-77.97173,14
59051,59051,Kenansville,GEN 1,NC,Duplin,DUK,SERC,180,20,2000,0,0,34.96,-78.04,14
59052,59052,Fairmont-FLS 100,GEN 1,NC,Robeson,DUK,SERC,180,20,4000,0,0,34.52,-79.13,14
59055,59055,Rariton OMP,PV1,NJ,Somerset,PJM,RFC,90,30,2400,0,0,40.574444,-74.648056,14
59057,59057,Skillman,GEN 1,NJ,Somerset,PJM,RFC,90,30,2700,0,0,40.574444,-74.648056,14
59058,59058,Vacaville,GEN 1,CA,Solano,CISO,WECC,90,30,1000,0,0,38.399444,-121.960278,14
59059,59059,Raritan ITS,GEN 1,NJ,Somerset,PJM,RFC,90,30,2000,0,0,40.574444,-74.654167,14
59060,59060,Waste Water Treatment Plant,WWPV,MA,Berkshire,ISNE,NPCC,200,20,1500,0,0,42.41,-73.24,14
59075,59075,Brewster Landfill,BRE1,MA,Barnstable,ISNE,NPCC,180,25,1000,0,0,41.745556,-70.103056,14
59077,59077,Chatham Landfill,CHA,MA,Barnstable,ISNE,NPCC,180,25,1500,0,0,41.686111,-70.006111,14
59078,59078,Harwich Landfill,HAR1,MA,Barnstable,ISNE,NPCC,180,25,4000,0,0,41.696111,-70.091944,14
59079,59079,Katama Farm,KAT1,MA,Dukes,ISNE,NPCC,180,25,1000,0,0,41.361111,-70.516944,14
59080,59080,Nunnepog,NUN1,MA,Dukes,ISNE,NPCC,180,25,1000,0,0,41.358889,-70.505,14
59081,59081,Barnstable Landfill,HAR1,MA,Barnstable,ISNE,NPCC,180,25,4000,0,0,41.659722,-70.395556,14
59082,59082,Dennis Landfill,DEN1,MA,Barnstable,ISNE,NPCC,180,25,5000,0,0,41.693056,-70.145,14
59085,59085,Lepomis PV Energy LLC,INV-1,MA,Plymouth,ISNE,NPCC,0,0,4500,0,2,41.857222,-70.558333,14
59086,59086,"Cottonwood Solar, LLC (Goose Lake)",GEN1,CA,Kern,CISO,WECC,180,45,12000,2,2,35.593611,-119.58,14
59087,59087,"Cottonwood Solar, LLC (City of Corcoran)",GEN 1,CA,Kings,CISO,WECC,180,45,12000,2,2,36.134444,-119.554444,14
59088,59088,Calipatria Solar Farm,GEN 1,CA,Imperial,IID,WECC,90,33.165833,20000,2,2,33.165833,-115.532222,14
59090,59090,Rockland Solar CSG,GEN1,MA,Plymouth,ISNE,NPCC,180,10,2000,0,0,42.089167,-70.897778,14
59094,59094,Division 1,GEN 1,CA,Los Angeles,CISO,WECC,180,15,1500,0,0,34.708333,-118.130556,14
59095,59095,Division 2,GEN 1,CA,Los Angeles,CISO,WECC,180,5,1000,0,0,34.708333,-118.130556,14
59096,59096,Division 3,GEN1,CA,Los Angeles,CISO,WECC,180,15,1000,0,0,34.708333,-118.130556,14
59097,59097,Berry Plastics Solar,PV1,NJ,Warren,PJM,RFC,180,25,10100,0,0,40.698333,-75.151944,14
59098,59098,Kettering Solar 1,PV1,CA,Los Angeles,CISO,WECC,180,5,1000,0,0,34.700278,-118.123611,14
59099,59099,Kettering Solar 2,PV1,CA,Los Angeles,CISO,WECC,180,15,1000,0,0,34.700278,-118.123611,14
59100,59100,Chauncey Farm LLC,1,NC,Columbus,CPLE,SERC,180,25,4900,0,0,34.3375,-78.521944,14
59102,59102,Dragstrip Farm,1,NC,Burke,DUK,SERC,180,20,5000,2,0,35.758056,-81.416111,14
59103,59103,Fremont Farm LLC,1,NC,Wayne,CPLE,SERC,180,20,5000,0,0,35.531944,-77.969167,14
59105,59105,Market Farm,1,NC,Rockingham,DUK,SERC,190,20,4900,0,0,36.390278,-79.647222,14
59106,59106,Snow Hill Solar 2 LLC,1,NC,Greene,CPLE,SERC,180,25,2000,0,0,35.444167,-77.649444,14
59107,59107,Mount Olive Farm,1,NC,Wayne,CPLE,SERC,180,20,5000,2,0,35.201944,-78.081667,14
59109,59109,Spicewood Solar Farm LLC,1,NC,Moore,CPLE,SERC,180,20,5000,0,0,35.3025,-79.701667,14
59110,59110,Springfield Solar 1 LLC,1,MO,Greene,SWPP,SERC,180,20,4900,0,0,37.246389,-93.166389,14
59111,59111,West Salisbury Farm LLC,1,NC,Rowan,DUK,SERC,225,20,5000,2,0,35.668333,-80.523611,14
59112,59112,Siler Solar LLC,1,NC,Chatham,CPLE,SERC,180,20,5000,2,0,35.721389,-79.504444,14
59113,59113,Yanceyville Farm 2 LLC,1,NC,Caswell,CPLE,SERC,180,20,5000,0,0,36.413889,-79.316944,14
59114,59114,Redmon Solar Farm LLC,1,NC,Rowan,DUK,SERC,180,25,2000,0,0,35.710833,-80.665833,14
59115,59115,Anderson Farm LLC,1,NC,Sampson,CPLE,SERC,180,20,1900,2,0,34.975556,-78.516667,14
59117,59117,DD Fayetteville Solar NC LLC,PV1,NC,Bladen,DUK,SERC,180,20,23100,0,0,34.834444,-78.843611,14
59119,59119,Warsaw I,PV1,NC,Duplin,DUK,SERC,180,20,2000,0,0,35.01,-78.11,14
59120,59120,Warsaw II,PV1,NC,Duplin,DUK,SERC,180,20,2000,0,0,35.01,-78.05,14
59121,59121,Acushnet-Braley Road 1,57449,MA,Bristol,ISNE,NPCC,180,25,1900,0,2,41.751667,-70.970556,14
59122,59122,Enerparc CA1 LLC,ECA11,CA,San Benito,CISO,WECC,200,28,1500,0,0,36.831667,-121.404167,14
59123,59123,Moncure Farm LLC,1,NC,Chatham,CPLE,SERC,181.1,20,3000,0,0,35.568333,-79.0325,14
59124,59124,Martin Creek Farm LLC,1,NC,Vance,CPLE,SERC,180,20,3000,0,0,36.286389,-78.386111,14
59125,59125,Kinston,1,NC,Lenoir,CPLE,SERC,180,25,2000,0,0,35.370556,-77.608333,14
59126,59126,Daniel Farm LLC,1,NC,Davie,DUK,SERC,180,25,5000,0,0,35.848889,-80.553611,14
59127,59127,Bailey Farm LLC,1,NC,Nash,CPLE,SERC,182,25,5000,0,0,35.7875,-78.139722,14
59128,59128,Acushnet- High Hill,57449,MA,Bristol,ISNE,NPCC,180,25,3200,0,0,41.714444,-70.997222,14
59129,59129,CSD 2- Freedom High,57449,CA,Contra Costa,CISO,WECC,182,15,1100,0,0,37.969722,-121.719444,14
59130,59130,CSD 2 - Heritage High,57449,CA,Contra Costa,CISO,WECC,102,10,1300,0,0,37.921944,-121.755556,14
59131,59131,Dartmouth Landfill,57449,MA,Bristol,ISNE,WECC,180,25,1300,0,0,41.581111,-70.998056,14
59132,59132,EAFB - North Base,57449,CA,Kern,CISO,WECC,180,25,1100,0,2,34.9325,-117.907222,14
59133,59133,EAFB - South Base,57449,CA,Kern,CISO,WECC,180,25,1100,0,2,34.917222,-117.900278,14
59134,59134,Easton Landfill,57449,MA,Bristol,ISNE,NPCC,180,20,1900,0,0,42.010278,-71.092222,14
59135,59135,Ludlow Landfill,57449,MA,Hampden,ISNE,NPCC,180,25,2600,0,0,42.182222,-72.5075,14
59136,59136,Methuen Landfill,57449,MA,Essex,ISNE,NPCC,180,20,1300,0,0,42.744722,-71.175,14
59137,59137,Plymouth Site 1,57449,MA,Plymouth,ISNE,NPCC,180,25,4000,0,0,41.96,-70.778611,14
59138,59138,SDCCD - Miramar,57449,CA,San Diego,CISO,WECC,180,7.5,1100,0,0,32.906111,-117.121389,14
59139,59139,SDCWA - Twin Oaks,57449,CA,San Diego,CISO,WECC,180,20,1100,0,0,33.21,-117.170556,14
59140,59140,EDF Lancaster,INV-1,MA,Worcester,ISNE,NPCC,183,22,4500,0,0,42.529167,-71.665278,14
59144,59144,Brighton PV Solar Plant,15755,CO,Adams,WACM,WECC,180,25,1800,0,0,39.9825,-104.940833,14
59146,59146,XPF Solar Field,PV1,NC,Durham,DUK,SERC,180,35.911667,3000,0,0,35.911667,-78.873333,14
59148,59148,Green Farm,GREEN,NC,Martin,PJM,SERC,180,20,5000,0,0,35.831667,-77.269722,14
59149,59149,Simons Farm,SIMON,NC,Hertford,PJM,SERC,180,20,5000,0,0,36.306389,-76.997222,14
59150,59150,RE Mustang LLC,PV1,CA,Kings,CISO,WECC,0,0,100000,0,2,36.221667,-119.903056,14
59152,59152,Thornton PV1,THOR1,NC,Greene,DUK,SERC,190,20,5000,0,0,35.395833,-77.661667,14
59153,59153,Watson Seed Farm PV1,WAT1,NC,Nash,PJM,SERC,190,20,20000,2,0,36.129722,-77.721389,14
59154,59154,Bradley PV1,BRAD1,NC,Hertford,PJM,SERC,190,20,5000,2,0,36.260556,-77.076389,14
59155,59155,Shawboro PV1,SHAW1,NC,Currituck,PJM,SERC,180,25,20000,0,0,36.433333,-76.087222,14
59156,59156,Carter PV1,CTR1,NC,Cumberland,CPLE,SERC,180,20,5000,2,0,35.021111,-78.7875,14
59157,59157,Pecan PV1,PEC1,NC,Richmond,CPLE,SERC,180,20,5000,2,0,34.909167,-79.829444,14
59158,59158,Langley PV1,LNG1,NC,Wilson,CPLE,SERC,180,20,5000,2,0,35.801944,-77.848889,14
59162,59162,Mariposa Solar Center LLC,MSC 1,NC,Gaston,DUK,SERC,180,25,5000,0,0,35.373889,-81.086944,14
59163,59163,Highland Solar Center LLC,HSC 1,NC,Lenoir,CPLE,SERC,180,25,5000,0,0,35.363889,-77.451944,14
59164,59164,Elm City Solar Facility,NSC 1,NC,Wilson,CPLE,SERC,180,25,40000,2,0,35.781111,-77.846944,14
59166,59166,Bridgeport Disposal Solar Farm,BRIDG,NJ,Gloucester,PJM,RFC,180,20,1200,0,0,39.7875,-75.350833,14
59167,59167,Lancaster Solar 1,LS1,CA,Los Angeles,CISO,WECC,270,22,1500,0,0,34.715,-118.095,14
59168,59168,Avalon Solar,AS,AZ,Pima,TEPC,WECC,90,32.001389,29000,0,2,32.001389,-110.960556,14
59169,59169,Lancaster Solar 2,LS2,CA,Los Angeles,CISO,WECC,270,22,1500,0,2,34.710556,-118.166111,14
59170,59170,Jakana Solar,5MWPV,NC,Martin,PJM,SERC,180,20,5000,2,0,35.875278,-77.081111,14
59171,59171,Windsor Solar,5MWPV,NC,Bertie,PJM,SERC,180,20,5000,2,0,36.016944,-76.883056,14
59172,59172,Belmont,PV1,IN,Marion,MISO,RFC,180,18,3800,0,0,39.72,-86.193056,14
59173,59173,Bethel Solar,5MWPV,NC,Pitt,PJM,SERC,180,20,5000,0,0,35.75,-77.385,14
59174,59174,Lewiston Solar,5MWPV,NC,Bertie,PJM,SERC,180,20,5000,2,0,36.141111,-77.211111,14
59175,59175,Woodland Solar,5MWPV,NC,Northampton,PJM,SERC,180,25,5000,0,0,36.341944,-77.221111,14
59176,59176,Williamston Solar,5MWPV,NC,Martin,PJM,SERC,180,20,5000,2,0,35.801111,-77.063056,14
59177,59177,Winton Solar,5MWPV,NC,Hertford,PJM,SERC,180,25,5000,0,0,36.375,-76.938889,14
59178,59178,Franklin 1,KRS04,MA,Norfolk,ISNE,NPCC,180,25,3000,0,0,42.040556,-71.393611,14
59179,59179,Franklin 2,KRS05,MA,Norfolk,ISNE,NPCC,180,25,4000,0,0,42.054167,-71.391667,14
59180,59180,Marion Solar LNG,PV1,IN,Marion,MISO,RFC,180,18,1500,0,0,39.913056,-86.238056,14
59182,59182,Hesperia,10-94,CA,San Bernardino,CISO,WECC,180,20,1500,0,0,34.435,-117.378056,14
59183,59183,"CID Solar, LLC",PV1,CA,Kings,CISO,WECC,180,45,20000,2,2,36.138056,-119.564722,14
59184,59184,Mulberry Farm LLC,PV1,TN,McNairy,TVA,SERC,180,25,15800,0,0,35.131944,-88.586667,14
59185,59185,Jacobstown,PV1,NJ,Burlington,PJM,RFC,180,20,5000,0,0,40.063743,-74.582429,14
59186,59186,West Pemberton,PV1,NJ,Burlington,PJM,RFC,180,20,7000,0,0,40.006667,-74.730278,14
59188,59188,Selmer Farm LLC,PV1,TN,McNairy,TVA,SERC,180,25,15800,0,0,35.149722,-88.555278,14
59189,59189,East Wayne Solar LLC,1,NC,Wayne,CPLE,SERC,180,20,2000,0,0,35.441667,-77.85,14
59190,59190,Vickers,1,NC,Chatham,CPLE,SERC,180,20,2000,0,0,35.823333,-79.080278,14
59191,59191,Soluga Farms 1,1,NC,Sampson,CPLE,SERC,180,20,5000,0,0,35.243056,-78.386944,14
59192,59192,Soluga Farms 2 LLC,1,NC,Bladen,CPLE,SERC,183,20,5000,0,0,34.5,-78.689167,14
59198,59198,Sterling PV 3,STER3,CO,Logan,PSCO,WECC,0,0,1600,0,2,40.6316,-103.194694,14
59199,59199,Mesa PV1,MESA1,CO,Mesa,PSCO,WECC,135,39.0672,1600,0,2,39.0672,-108.509139,14
59203,59203,Farmersville,"PV1,PV2,PV3",CA,Tulare,CISO,WECC,180,20,4500,0,0,36.19,-119.12,14
59204,59204,OCI Alamo 3 LLC,OCIA3,TX,Bexar,ERCO,TRE,180,29.479167,5500,0,4,29.479167,-98.297222,14
59205,59205,OCI Alamo 5 LLC,OCIA5,TX,Uvalde,ERCO,TRE,180,29.216667,100000,0,4,29.216667,-99.716111,14
59206,59206,Alamo 6,OCIA6,TX,Pecos,ERCO,TRE,180,30.993056,105000,0,4,30.993056,-102.270833,14
59207,59207,OCI Alamo 7 LLC,OCIA7,TX,Haskell,ERCO,TRE,180,33.04,100000,0,4,33.04,-99.5525,14
59213,59213,Clipperton Holdings LLC,PV1,NC,Sampson,CPLE,SERC,180,52,5000,2,2,34.966944,-78.354444,14
59217,59217,Tiburon Holdings,PV1,NC,Davie,DUK,SERC,180,20,5000,0,0,35.903333,-80.416944,14
59219,59219,Porterville 6 and 7,"PV1,PV2",CA,Tulare,CISO,WECC,180,20,3000,0,0,36.05,-119.02,14
59237,59237,Lone Valley Solar Park II LLC,CPII,CA,San Bernardino,CISO,WECC,90,50,20000,0,2,34.408333,-116.8625,14
59239,59239,Eagle Springs Solar LLC,ESS01,CO,Garfield,PSCO,WECC,180,16,1000,0,0,39.526111,-107.696111,14
59241,59241,Brockelman,BROCK,MA,Worcester,ISNE,NPCC,180,25,3000,0,0,42.481389,-71.716944,14
59242,59242,Beverly,BVRLY,MA,Essex,ISNE,NPCC,180,20,2000,0,0,42.59,-70.911944,14
59248,59248,CCMUA,CCMUA,NJ,Camden,PJM,RFC,180,20,1500,0,0,39.923056,-75.1275,14
59249,59249,Rio Bravo Solar 1 LLC,PV1,CA,Kern,CISO,WECC,180,35.416111,20000,0,2,35.416111,-119.6825,14
59250,59250,Rio Bravo Solar II LLC,PV1,CA,Kern,CISO,WECC,180,35.4225,20000,0,2,35.4225,-119.629167,14
59251,59251,Caprock Solar 1 LLC,PV1,NM,Quay,SWPP,MRO,180,34.982778,25000,0,2,34.982778,-103.378333,14
59253,59253,Wildwood Solar II,PV1,CA,Kern,CISO,WECC,180,35.63,15000,0,2,35.63,-119.573889,14
59262,59262,Lancaster Little Rock,LLRC,CA,Los Angeles,CISO,WECC,180,25,5000,2,0,34.599444,-117.932778,14
59265,59265,Merced Solar LLC,PV8,CA,Merced,CISO,WECC,180,25,1500,0,2,37.267778,-120.484444,14
59267,59267,Mission Solar LLC,PV9,CA,Merced,CISO,WECC,180,25,1500,0,2,37.267778,-120.4825,14
59268,59268,Hollister Solar LLC,PV10,CA,San Benito,CISO,WECC,180,25,1500,0,2,36.8625,-121.428889,14
59269,59269,Victor Mesa Linda B2,VMLB2,CA,San Bernardino,CISO,WECC,180,20,1500,0,0,34.512778,-117.387222,14
59270,59270,Victor Mesa Linda C2,VMLC2,CA,San Bernardino,CISO,WECC,180,20,1500,0,0,34.511389,-117.387222,14
59271,59271,Victor Mesa Linda D2,VMLD2,CA,San Bernardino,CISO,WECC,180,20,1500,0,0,34.509444,-117.387222,14
59272,59272,Victor Mesa Linda E2,VMLE2,CA,San Bernardino,CISO,WECC,180,20,1500,0,0,34.508056,-117.387222,14
59273,59273,SEPV Palmdale East,PALME,CA,Los Angeles,CISO,WECC,90,34.613056,10000,0,2,34.613056,-117.938889,14
59274,59274,Sutter Greenworks LLC,SUTTG,NY,Suffolk,NYIS,NPCC,180,25,5000,0,0,40.928056,-72.771111,14
59275,59275,Sterlington Greenworks LLC,STERG,NY,Suffolk,NYIS,NPCC,180,25,1300,0,0,41.0675,-72.440278,14
59276,59276,Leavenworth Greenworks LLC,LEAVG,NY,Suffolk,NYIS,NPCC,180,25,9500,0,0,40.925278,-72.763333,14
59277,59277,Medford WWTP,MED1,NJ,Burlington,PJM,RFC,170,25,1300,0,0,39.922222,-74.806667,14
59278,59278,Reeves South,REEV1,NJ,Burlington,PJM,RFC,180,25,1000,0,0,39.926667,-74.813611,14
59283,59283,California PV Energy at ISD WWTP,W4236,CA,Contra Costa,CISO,WECC,168,30,1000,0,0,38.001111,-121.703889,14
59297,59297,Carrier Clinic,CARRI,NJ,Somerset,PJM,RFC,173,25,1500,2,0,40.47,-74.685,14
59300,59300,Hanford 1 and 2,"HAN1,HAN2",CA,Kings,CISO,WECC,180,20,3000,0,0,36.306667,-119.629167,14
59308,59308,Beacon Solar Plant Site 5,BEAC5,CA,Kern,LDWP,WECC,180,60,37800,0,2,35.248889,-118.034444,14
59309,59309,Beacon Solar Plant Site 2,BEAC2,CA,Kern,LDWP,WECC,180,60,47300,0,2,35.265833,-117.999167,14
59315,59315,Hecate Energy Beacon Solar 1,BEAC1,CA,Kern,LDWP,WECC,90,35.269444,56000,0,2,35.269444,-118.014444,14
59316,59316,Hecate Energy Beacon Solar 3,BEAC3,CA,Kern,LDWP,WECC,90,35.253056,56000,0,2,35.253056,-118.014722,14
59317,59317,Hecate Energy Beacon Solar 4,BEAC4,CA,Kern,LDWP,WECC,90,35.253611,50000,0,2,35.253611,-118.026944,14
59318,59318,North Run,NRUN1,NJ,Burlington,PJM,RFC,180,20,5200,0,0,40.069601,-74.584842,14
59319,59319,Rock Solid,ROCK1,NJ,Monmouth,PJM,RFC,180,20,8200,0,0,40.229725,-74.225818,14
59322,59322,Pumpjack Solar I,GEN1,CA,Kern,CISO,WECC,180,35.305556,20000,0,2,35.305556,-119.6225,14
59323,59323,Sacramento (SMUD),SMUPV,CA,Sacramento,BANC,WECC,123,10,1500,0,0,38.587222,-121.457778,14
59324,59324,MCCo Solar Generating Facility,MCCO1,OH,Cuyahoga,PJM,RFC,190,25,1000,0,0,41.516389,-81.597222,14
59327,59327,Marlboro Mushrooms Solar Field,GEN1,PA,Chester,PJM,RFC,0,0,1000,0,2,39.882778,-75.829444,14
59333,59333,Faison Solar,FAIS1,NC,Duplin,CPLE,SERC,180,25,2000,0,0,35.069722,-78.116111,14
59334,59334,"Catalina Solar 2, LLC",INV-1,CA,Kern,CISO,WECC,180,45,18000,0,2,34.812222,-118.352778,14
59337,59337,Harrell's Hill Solar Center LLC,HHS1,NC,Wayne,CPLE,SERC,180,25,5000,0,0,35.211944,-78.100833,14
59339,59339,Quinto Solar PV Project,SSC13,CA,Merced,CISO,WECC,0,0,108000,0,2,37.130278,-121.052222,14
59358,59358,Devens,MA2,MA,Middlesex,ISNE,NPCC,180,25,3000,0,0,42.559173,-71.625875,14
59359,59359,SCE-Snowline-Duncan Road (North),10400,CA,San Bernardino,CISO,WECC,0,0,1500,0,2,34.473889,-117.562778,14
59360,59360,SCE-Snowline-Duncan Road (South),11113,CA,San Bernardino,CISO,WECC,0,0,1000,0,2,34.471389,-117.562222,14
59361,59361,Browne Solar LLC,PV1,MA,Hampden,ISNE,NPCC,180,30,1400,0,0,42.200833,-72.322222,14
59362,59362,Indian Hill Solar LLC,PV1,MA,Hampden,ISNE,NPCC,180,30,1400,0,0,42.200833,-72.322222,14
59363,59363,State Street Solar LLC,PV1,MA,Hampden,ISNE,NPCC,180,30,1400,0,0,42.200833,-72.322222,14
59364,59364,Plainfield One Solar LLC,PV1,NJ,Somerset,PJM,NPCC,180,10,1300,0,0,40.605,-74.439444,14
59365,59365,24 Applegate Solar LLC,PV1,NJ,Mercer,PJM,NPCC,180,10,4900,0,0,40.205833,-74.579722,14
59366,59366,G&S Wantage Solar LLC,PV1,NJ,Sussex,PJM,NPCC,180,10,8500,0,0,41.189167,-74.591667,14
59367,59367,Engelhard Solar LLC,PV1,NJ,Middlesex,PJM,NPCC,180,10,1100,0,0,40.33,-74.4625,14
59368,59368,Westborough Solar LLC,PV1,MA,Worcester,ISNE,NPCC,180,10,2200,0,0,42.263333,-71.609167,14
59369,59369,Lakewood Seven Solar LLC,PV1,NJ,Ocean,PJM,NPCC,180,10,1000,0,0,40.0575,-74.185556,14
59370,59370,4 Applegate Solar LLC,PV1,NJ,Mercer,PJM,NPCC,180,10,1800,0,0,40.196389,-74.583611,14
59371,59371,12 Applegate Solar LLC,PV1,NJ,Mercer,PJM,NPCC,180,10,1900,0,0,40.200278,-74.576111,14
59374,59374,Old Mill Solar,OMSLR,OR,Klamath,PACW,WECC,180,42.203333,5000,0,2,42.203333,-121.046389,14
59375,59375,Rose Hill,ROSE1,NC,Duplin,CPLE,SERC,180,20,2000,0,0,34.823889,-77.969722,14
59376,59376,Dunn,DUNN1,NC,Harnett,CPLE,SERC,180,20,2000,0,0,35.475,-78.548611,14
59377,59377,Town of Cary,CARY1,NC,Duplin,CPLE,SERC,180,20,1500,0,0,34.823889,-77.969722,14
59380,59380,"Wildwood Solar I, LLC",WLD1,CA,Kern,CISO,WECC,180,35.615833,19500,0,2,35.615833,-119.578333,14
59386,59386,"Enterprise Solar, LLC",ENTS1,UT,Iron,PACE,WECC,180,60,80000,0,2,37.641111,-113.6125,14
59387,59387,"Escalante Solar I, LLC",ESCS1,UT,Beaver,PACE,WECC,180,60,80000,0,2,38.524167,-113.033889,14
59388,59388,"Escalante Solar II, LLC",ESCS2,UT,Beaver,PACE,WECC,180,60,80000,0,2,38.500833,-113.03,14
59389,59389,"Escalante Solar III, LLC",ESCS3,UT,Beaver,PACE,WECC,180,60,80000,0,2,38.497778,-112.986944,14
59390,59390,True North,TNE1,MA,Essex,ISNE,NPCC,180,30,4800,0,0,42.8475,-70.898333,14
59393,59393,Eubank Landfill Solar Array,ESNM1,NM,Bernalillo,PNM,WECC,90,30,2000,0,0,35.049167,-106.53,14
59394,59394,Grafton Solar,KRS03,MA,Worcester,ISNE,NPCC,180,25,1500,0,0,42.199167,-71.679167,14
59395,59395,City of Tulare Water Facility,SC500,CA,Tulare,CISO,WECC,180,40,1000,0,0,36.185,-119.375,14
59396,59396,Shaffer,SHF01,MA,Middlesex,ISNE,NPCC,180,10,5000,0,0,42.594167,-71.249444,14
59404,59404,Searchlight Solar,1,NV,Clark,NEVP,WECC,90,35.479722,17500,0,2,35.479722,-114.936111,14
59405,59405,Diamond Valley Solar Project,PV11,CA,Riverside,CISO,WECC,180,25,1300,0,2,33.713056,-117.0725,14
59406,59406,Facile Solar,SYS1,NC,Alamance,DUK,SERC,180,20,2000,0,0,36.098889,-79.493889,14
59407,59407,Newman Solar,NEW1,TX,El Paso,EPE,WECC,90,31.978333,10500,0,2,31.978333,-106.4275,14
